도서관명,시도명,시군구명,도서관유형,휴관일,평일운영시작시각,평일운영종료시각,토요일운영시작시각,토요일운영종료시각,공휴일운영시작시각,공휴일운영종료시각,열람좌석수,자료수(도서),자료수(연속간행물),자료수(비도서),대출가능권수,대출가능일수,소재지도로명주소,운영기관명,도서관전화번호,부지면적,건물면적,홈페이지주소,위도,경도,데이터기준일자,제공기관코드,제공기관명
강촌공원작은도서관,경기도,고양시,작은도서관,월+일+둘째 주 화+법정공휴일,10:00,19:00,10:00,19:00,00:00,00:00,0,5025,4,0,5,14,경기도 고양시 일산동구 강석로 132-1(마두동),책과도서관,031-901-6957,21,21,https://band.us/@kangchonlib,37.653332,126.781081,2022-03-31,3940000,경기도 고양시
고양윤창작은도서관,경기도,고양시,작은도서관,일+첫째 주 월+첫째 주 토+셋째 주 토+다섯째 주 토+법정공휴일,09:30,17:30,09:30,14:00,00:00,00:00,0,13261,10,0,5,14,"경기도 고양시 덕양구 동헌로 398-17(고양동, 윤창아파트)",경기도 고양시 고양동 윤창아파트 입주자대표회의,031-967-9633,110,110,https://cafe.naver.com/yclibrary,37.705803,126.894709,2022-03-31,3940000,경기도 고양시
고양작은도서관,경기도,고양시,작은도서관,둘째 주 월+일+법정공휴일,09:00,18:00,10:00,18:00,00:00,00:00,0,26320,38,55,5,14,경기도 고양시 덕양구 혜음로 19-11(고양동),경기도 고양시 고양동 주민자치위원회,031-963-4321,172,172,https://cafe.naver.com/gylibrary,37.702518,126.901195,2022-03-31,3940000,경기도 고양시
관산작은도서관,경기도,고양시,작은도서관,셋째 주 월+토+일+법정공휴일,09:00,18:00,00:00,00:00,00:00,00:00,0,27984,9,0,5,14,경기도 고양시 덕양구 통일로 789(관산동),경기도 고양시 관산동 주민자치위원회,031-962-1969,198,198,https://cafe.daum.net/glibrary,37.688013,126.862536,2022-03-31,3940000,경기도 고양시
내유작은도서관,경기도,고양시,작은도서관,토+일+법정공휴일,09:00,18:00,00:00,00:00,00:00,00:00,0,8903,0,0,5,14,경기도 고양시 덕양구 유산길 96(내유동),내유동복합커뮤니티,070-4422-2580,145,145,https://band.us/@naeyu,37.73129325,126.8483937,2022-03-31,3940000,경기도 고양시
대덕작은도서관,경기도,고양시,작은도서관,토+일+법정공휴일,09:00,18:00,00:00,00:00,00:00,00:00,0,11888,7,150,5,14,경기도 고양시 덕양구 덕은로 34(덕은동),경기도 고양시 대덕동 주민자치위원회,02-3159-8501,118,118,https://blog.naver.com/tjftjftjf011,37.587101,126.876666,2022-03-31,3940000,경기도 고양시
대화도서관,경기도,고양시,공공도서관,첫 번째 월+세 번째 월+법정공휴일(일요일 제외),07:00,23:00,07:00,23:00,00:00,00:00,190,144652,142,2095,7,14,경기도 고양시 일산서구 일산로 689(대화동),경기도 고양시청,031-8075-9130,3944,788,https://www.goyanglib.or.kr/MJ/index.do,37.68102176,126.753942,2022-03-31,3940000,경기도 고양시
대화마을작은도서관,경기도,고양시,작은도서관,법정공휴일,09:00,18:00,10:00,18:00,00:00,00:00,0,19621,9,0,5,14,"경기도 고양시 일산서구 대화1로 61(대화동, 대화마을5단지아파트)",킨텍스휴먼빌아파트 입주자대표,031-924-0467,99,99,,37.672884,126.735397,2022-03-31,3940000,경기도 고양시
덕이도서관,경기도,고양시,공공도서관,첫 번째 월+세 번째 월+법정공휴일(일요일 제외),07:00,23:00,07:00,23:00,00:00,00:00,168,87379,119,1649,7,14,경기도 고양시 일산서구 하이파크로 128(덕이동),경기도 고양시청,031-8075-9320,45821.6,2956.88,https://www.goyanglib.or.kr/MN/index.do,37.702949,126.754554,2022-03-31,3940000,경기도 고양시
마두도서관,경기도,고양시,공공도서관,두 번째 월+네 번째 월+법정공휴일(일요일 제외),07:00,23:00,07:00,23:00,00:00,00:00,0,163164,119,3511,7,14,경기도 고양시 일산동구 일산로 355(마두동),경기도 고양시청,031-8075-9067,36029.3,3756.7,https://www.goyanglib.or.kr/MA/index.do,37.666716,126.782057,2022-03-31,3940000,경기도 고양시
마상공원작은도서관,경기도,고양시,작은도서관,월+일+둘째 주 화+법정공휴일,10:00,19:00,10:00,19:00,00:00,00:00,0,6913,8,0,5,14,경기도 고양시 덕양구 원당로69번길 46(주교동),책과도서관,070-4422-2587,48,48,https://www.facebook.com/masanglib/,37.66014949,126.8330165,2022-03-31,3940000,경기도 고양시
모당공원작은도서관,경기도,고양시,작은도서관,일+둘째 주 화+법정공휴일,09:00,18:00,09:00,18:00,00:00,00:00,0,7465,10,0,3,14,경기도 고양시 일산동구 중산로 73-2(중산동),책과도서관,070-4244-7442,174,174,https://www.facebook.com/modangparklibrary,37.67814936,126.7812889,2022-03-31,3940000,경기도 고양시
백석도서관,경기도,고양시,공공도서관,첫 번째 월+세 번째 월+법정공휴일(일요일 제외),07:00,23:00,07:00,23:00,00:00,00:00,234,141667,131,2176,7,14,경기도 고양시 일산동구 일산로 118(백석동),경기도 고양시청,031-8075-9090,4347.7,4030.5,https://www.goyanglib.or.kr/MD/index.do,37.647218,126.793626,2022-03-31,3940000,경기도 고양시
별꿈도서관,경기도,고양시,공공도서관,월+법정공휴일(일요일 제외),10:00,19:00,09:00,18:00,00:00,00:00,0,12785,6,0,7,14,경기도 고양시 덕양구 고양대로 1937(동산동),경기도 고양시청,031-8075-9305,471,585.08,https://www.goyanglib.or.kr/MQ/index.do,37.646263,126.894479,2022-03-31,3940000,경기도 고양시
사리현작은도서관,경기도,고양시,작은도서관,월+일+법정공휴일,10:00,19:00,10:00,18:00,00:00,00:00,0,12401,7,0,5,14,"경기도 고양시 일산동구 공릉천로 68(사리현동, 동문아파트)",경기도 고양시 사리현동 동문굿모닝힐 입주자대표회의,031-815-5530,93,93,https://blog.naver.com/sarihyeon,37.6991849205,126.8464339258,2022-03-31,3940000,경기도 고양시
삼송도서관,경기도,고양시,공공도서관,첫 번째 월+세 번째 월+법정공휴일(일요일 제외),08:00,23:00,08:00,23:00,00:00,00:00,110,75907,141,1023,7,14,경기도 고양시 덕양구 덕수천1로 73(삼송동),경기도 고양시청,031-8075-9360,45016,3836.14,https://www.goyanglib.or.kr/MP/index.do,37.648863,126.884854,2022-03-31,3940000,경기도 고양시
식사도서관,경기도,고양시,공공도서관,두 번째 월+네 번째 월+법정공휴일(일요일 제외),07:00,23:00,07:00,23:00,00:00,00:00,194,90150,106,1830,7,14,경기도 고양시 일산동구 위시티2로 43-6(식사동),경기도 고양시청,031-8075-9190,2400,3775.72,https://www.goyanglib.or.kr/MM/index.do,37.67608444,126.815973,2022-03-31,3940000,경기도 고양시
삼송작은도서관,경기도,고양시,작은도서관,일+첫째 주 월+첫째 주 토+셋째 주 토+다섯째 주 토+법정공휴일,09:00,18:00,10:00,14:00,00:00,00:00,0,12161,8,0,5,14,경기도 고양시 덕양구 삼송로 180(삼송동),경기도 고양시 삼송동 종합복지회관,02-381-9095,122.4,122.4,,37.653145,126.893909,2022-03-31,3940000,경기도 고양시
신원도서관,경기도,고양시,공공도서관,두 번째 월+네 번째 월+법정공휴일(일요일 제외),07:00,23:00,07:00,23:00,00:00,00:00,170,77307,136,1573,7,14,경기도 고양시 덕양구 신원2로 24(신원동),경기도 고양시청,031-8075-9340,14983,3982.89,https://www.goyanglib.or.kr/MO/index.do,37.666383,126.886359,2022-03-31,3940000,경기도 고양시
아람누리도서관,경기도,고양시,공공도서관,첫 번째 월+세 번째 월+법정공휴일(일요일 제외),09:00,22:00,09:00,18:00,00:00,00:00,0,193214,197,3078,7,14,경기도 고양시 일산동구 중앙로 1286(마두동),경기도 고양시청,031-8075-9038,54239.4,4457.07,https://www.goyanglib.or.kr/MF/index.do,37.661486,126.774456,2022-03-31,3940000,경기도 고양시
원당도서관,경기도,고양시,공공도서관,첫 번째 월+세 번째 월+법정공휴일(일요일 제외),09:00,18:00,09:00,18:00,00:00,00:00,0,78059,37,3473,7,14,경기도 고양시 덕양구 호국로790번길 87(성사동),경기도 고양시청,031-8075-9260,586,348.53,https://www.goyanglib.or.kr/MC/index.do,37.65465084,126.840652,2022-03-31,3940000,경기도 고양시
녹색대학문고,경상남도,함양군,작은도서관,매주토요일+일요일,13:00,17:00,00:00,00:00,00:00,00:00,20,6000,2,0,0,0,경상남도 함양군 백전면 구산대안로 10-2,,,,,,,,2022-07-11,5460000,경상남도 함양군
반딧불작은도서관,경상남도,함양군,작은도서관,매주토요일+일요일,13:00,17:00,00:00,00:00,00:00,00:00,10,1250,0,0,0,0,경상남도 함양군 함양읍 거면강변길 22,,,,,,,,2022-07-11,5460000,경상남도 함양군
수동면새마을작은도서관,경상남도,함양군,작은도서관,평일+일요일,00:00,00:00,10:00,16:00,00:00,00:00,20,1200,0,0,4,7,경상남도 함양군 수동면 수동1길 118,,,,,,,,2022-07-11,5460000,경상남도 함양군
용유담작은도서관,경상남도,함양군,작은도서관,매주토요일+일요일,10:00,18:00,00:00,00:00,00:00,00:00,12,3000,0,0,0,0,경상남도 함양군 휴천면 송전길 364,,,,,,,,2022-07-11,5460000,경상남도 함양군
이산책판도서관,경상남도,함양군,작은도서관,매주토요일+일요일,10:00,17:00,00:00,00:00,00:00,00:00,10,1350,0,0,0,0,경상남도 함양군 서상면 덕유월성로 495,,,,,,,,2022-07-11,5460000,경상남도 함양군
휴먼시아새마을작은도서관,경상남도,함양군,작은도서관,매주 월요일~금요일,00:00,00:00,10:00,17:00,10:00,17:00,30,3378,0,0,4,7,경상남도 함양군 함양읍 함양로 1246(함양교산휴먼시아),,,,,,,,2022-07-11,5460000,경상남도 함양군
LH함양서하어린이도서관,경상남도,함양군,작은도서관,매주 화요일+일요일,11:00,19:00,11:00,19:00,00:00,00:00,30,1200,0,0,5,7,경상남도 함양군 서하면 송계앞길 7-2,,,,,,,,2022-07-11,5460000,경상남도 함양군
화순열린도서관,전라남도,화순군,공공도서관,매주 월+1월1일+설+추석,09:00,22:00,09:00,21:00,09:00,18:00,300,54475,18,1379,5,14,전라남도 화순군 화순읍 광덕로 231,전라남도 화순군청,061-373-3955,,1556,http://www.hslib.kr,35.0655124,126.9917538,2022-07-06,4900000,전라남도 화순군
능주면민도서관,전라남도,화순군,작은도서관,매주 월+일+법정공휴일,09:00,18:00,09:00,18:00,00:00,00:00,40,5948,0,0,5,14,전라남도 화순군 능주면 정암길 90,전라남도 화순군청,061-372-2445,839.49,218.24,,34.9890688,126.9575585,2022-07-06,4900000,전라남도 화순군
세빛도서관,전라남도,화순군,작은도서관,연중무휴,07:00,18:00,07:00,18:00,07:00,18:00,30,3300,2,0,3,14,전라남도 화순군 화순읍 갱정길 16(세빛교회),세빛도서관,061-375-1009,,109,,35.0647639,126.9940659,2022-07-06,4900000,전라남도 화순군
화순작은도서관,전라남도,화순군,작은도서관,매주 일+월,13:00,18:00,13:00,18:00,13:00,18:00,10,1000,0,0,3,14,전라남도 화순군 동면 언동1길 82,화순작은도서관,061-371-9122,,60,,35.0430302,127.0317411,2022-07-06,4900000,전라남도 화순군
다사랑작은도서관,전라남도,화순군,작은도서관,매주 일,08:00,18:00,08:00,18:00,08:00,18:00,20,5000,3,0,3,14,전라남도 화순군 화순읍 진각로 125(2층),다사랑작은도서관,061-371-0191,,66,,35.06252376,126.9859842,2022-07-06,4900000,전라남도 화순군
지혜샘어린이문고,전라남도,화순군,작은도서관,매주 토+일,09:00,17:00,09:00,17:00,09:00,17:00,10,1500,0,0,3,14,전라남도 화순군 화순읍 중앙로 133(시온교회),지혜샘어린이문고,061-375-3004,,38,,35.0604876,126.9961312,2022-07-06,4900000,전라남도 화순군
늘푸른작은도서관,전라남도,화순군,작은도서관,연중무휴,10:00,17:00,10:00,17:00,10:00,17:00,36,6370,2,0,3,14,전라남도 화순군 능주면 학포로 2235-3(늘푸른교회),늘푸른작은도서관,061-371-9115,,66,,35.01306342,126.9520009,2022-07-06,4900000,전라남도 화순군
화순중앙도서관,전라남도,화순군,작은도서관,매주 월,10:00,18:00,10:00,18:00,10:00,18:00,28,3226,5,0,3,14,전라남도 화순군 화순읍 매화동길 24-1(중앙교회),화순중앙도서관,061-373-8291,,41,,35.0578317,126.9773981,2022-07-06,4900000,전라남도 화순군
꿈나무도서관,전라남도,화순군,작은도서관,매주 월,09:00,17:00,09:00,17:00,09:00,17:00,24,5454,0,0,3,14,전라남도 화순군 화순읍 칠충로 146(중부교회),꿈나무도서관,061-374-1004,,66,,35.0614303,126.984385,2022-07-06,4900000,전라남도 화순군
빛나라도서관,전라남도,화순군,작은도서관,연중무휴,09:00,18:00,09:00,18:00,09:00,18:00,40,5468,34,0,3,14,전라남도 화순군 화순읍 오성로 519-12(신실한교회),빛나라도서관,061-375-1047,,46.9,,35.0539587,126.9654276,2022-07-06,4900000,전라남도 화순군
해망마을도서관,전라남도,화순군,작은도서관,매주 일,14:00,17:00,14:00,17:00,14:00,17:00,24,3900,6,0,0,0,전라남도 화순군 도암면 아내미길 7,해망마을도서관,061-373-9937,,116.41,,34.9643822,126.8889739,2022-07-06,4900000,전라남도 화순군
안심 작은도서관,전라남도,화순군,작은도서관,매주 목,14:00,17:00,14:00,17:00,14:00,17:00,24,2807,1,0,3,14,전라남도 화순군 이서면 안심길 26,안심 작은도서관,061-371-0201,,63,,35.106199,127.0420849,2022-07-06,4900000,전라남도 화순군
잠정햇살마을도서관,전라남도,화순군,작은도서관,매주 월,15:00,22:00,15:00,22:00,15:00,22:00,39,1000,0,0,3,14,전라남도 화순군 능주면 잠정햇살길 20(잠정햇살마을),잠정햇살마을도서관,061-379-3956,,86.2,,34.9828193,126.9590842,2022-07-06,4900000,전라남도 화순군
능성예절도서관,전라남도,화순군,작은도서관,연중무휴,10:00,17:00,10:00,17:00,10:00,17:00,15,2000,2,0,3,14,전라남도 화순군 능주면 교촌길 36(능주향교),능성예절도서관,061-379-3956,,50.8,,34.9895869,126.9513476,2022-07-06,4900000,전라남도 화순군
광신프로그레시브작은도서관(너나들이도서관),전라남도,화순군,작은도서관,매주 화+목+금+일,15:00,18:00,13:00,16:00,00:00,00:00,12,1000,0,0,0,0,전라남도 화순군 화순읍 대리길 41,㈜광신주택,061-379-3956,,52.64,,35.0593374,126.9770692,2022-07-06,4900000,전라남도 화순군
경복작은도서관,전라남도,화순군,작은도서관,연중무휴,09:00,18:00,09:00,18:00,09:00,18:00,24,1700,0,0,0,0,전라남도 화순군 동면 복림길 4,경복작은도서관,,,70,,35.0527105,127.085709,2022-07-06,4900000,전라남도 화순군
도계도서관,강원도,삼척시,공공도서관,월요일+법정공휴일,09:00,18:00,09:00,22:00,00:00,00:00,180,95280,74,837,5,7,강원도 삼척시 도계읍 도계느티로 25-18,강원도 삼척시청,033-570-4211,3280,1160,,37.2323751,129.0497029,2022-06-23,4240000,강원도 삼척시
원덕도서관,강원도,삼척시,공공도서관,토요일+일요일+법정공휴일,09:00,18:00,00:00,00:00,00:00,00:00,4,74812,50,160,10,30,강원도 삼척시 원덕읍 삼척로 446-14,강원도 삼척시청,033-572-4819,766,364,,37.17685442,129.3354843,2022-06-23,4240000,강원도 삼척시
중흥샘이깊은작은도서관,경상남도,김해시,작은도서관,매주월요일+일요일+국가지정공휴일,10:00,18:00,09:00,17:00,00:00,00:00,30,6908,0,31,7,14,"경상남도 김해시 진영읍 장등로19번길 18, 관리동 2층(중흥s클래스2단지아파트)",경상남도 김해시청,055-346-7181,,146,http://lib.gimhae.go.kr,35.30855712,128.7325694,2022-06-15,5350000,경상남도 김해시
진례작은도서관,경상남도,김해시,작은도서관,매주월요일+일요일+국가지정공휴일,09:00,18:00,09:00,18:00,00:00,00:00,30,9447,0,0,7,14,경상남도 김해시 진례면 송현로 21-1,경상남도 김해시청,055-345-4277,,141,http://lib.gimhae.go.kr,35.24884611,128.7507032,2022-06-15,5350000,경상남도 김해시
진영한빛도서관,경상남도,김해시,공공도서관,마지막주 월요일+국가지정공휴일,09:00,22:00,09:00,18:00,00:00,00:00,259,130855,103,6414,7,14,경상남도 김해시 진영읍 김해대로 440,경상남도 김해시청,055-330-4831,,6568,http://lib.gimhae.go.kr,35.30467825,128.7369112,2022-06-15,5350000,경상남도 김해시
책고래작은도서관,경상남도,김해시,작은도서관,매주월요일+일요일+국가지정공휴일,09:30,18:30,09:30,18:30,00:00,00:00,20,12723,25,0,7,14,"경상남도 김해시 장유로334번길 76, 관리동 3층(신문동, 장유e편한세상아파트)",경상남도 김해시청,055-314-5879,,193,http://lib.gimhae.go.kr,35.19409243,128.8108585,2022-06-15,5350000,경상남도 김해시
청소년문화의집,경상남도,김해시,작은도서관,매주월요일+국가지정공휴일,09:00,18:00,09:00,18:00,00:00,00:00,10,5669,0,0,7,14,경상남도 김해시 가락로176번길 3,경상남도 김해시청,055-330-4634,,10,http://lib.gimhae.go.kr,35.24214897,128.8785294,2022-06-15,5350000,경상남도 김해시
칠암도서관,경상남도,김해시,공공도서관,마지막주 월요일+국가지정공휴일,09:00,22:00,09:00,18:00,00:00,00:00,540,161189,123,7182,7,14,경상남도 김해시 활천로285번길 14 (삼방동),경상남도 김해시청,055-330-4581,,5868,http://lib.gimhae.go.kr,35.24456328,128.910444,2022-06-15,5350000,경상남도 김해시
캐슬작은도서관,경상남도,김해시,작은도서관,매주월요일+일요일+국가지정공휴일,09:00,18:00,09:00,17:00,00:00,00:00,26,9583,0,76,7,14,"경상남도 김해시 가야로451번길 9, 관리동 2층(동상동, 롯데캐슬1단지아파트)",경상남도 김해시청,055-334-4822,,85,http://lib.gimhae.go.kr,35.24282762,128.8834639,2022-06-15,5350000,경상남도 김해시
팔판빛오름작은도서관,경상남도,김해시,작은도서관,매주월요일+일요일+국가지정공휴일,09:00,18:00,09:00,18:00,00:00,00:00,40,4867,4,7,7,14,"경상남도 김해시 덕정로 108, 복리동 지하1층(관동동, 팔판마을부영이그린타운9차)",경상남도 김해시청,055-904-2408,,113,http://lib.gimhae.go.kr,35.17891941,128.797674,2022-06-15,5350000,경상남도 김해시
팔판작은도서관,경상남도,김해시,작은도서관,매주월요일+일요일+국가지정공휴일,09:00,18:00,09:00,17:00,00:00,00:00,50,10724,7,3,7,14,"경상남도 김해시 덕정로 68, 관리동 지하1층(관동동, 팔판마을부영이그린타운3차아파트)",경상남도 김해시청,055-312-9822,,306,http://lib.gimhae.go.kr,35.17924236,128.7922295,2022-06-15,5350000,경상남도 김해시
하늘빛작은도서관,경상남도,김해시,작은도서관,매주월요일+일요일+국가지정공휴일,09:00,18:00,09:00,17:00,00:00,00:00,32,11200,23,0,7,14,"경상남도 김해시 구산로5번길 65, 구지마을 동원아파트복리동 지하1층(구산동)",경상남도 김해시청,055-314-3601,,211,http://lib.gimhae.go.kr,35.25471487,128.8690008,2022-06-15,5350000,경상남도 김해시
한국작은도서관,경상남도,김해시,작은도서관,매주월요일+일요일+국가지정공휴일,09:00,18:00,09:00,18:00,00:00,00:00,15,13605,0,0,7,14,"경상남도 김해시 분성로 155, 한국2차 관리동 지하1층(외동)",경상남도 김해시청,055-334-5400,,200,http://lib.gimhae.go.kr,35.23075022,128.8644942,2022-06-15,5350000,경상남도 김해시
한신책사랑작은도서관,경상남도,김해시,작은도서관,매주월요일+일요일+국가지정공휴일,09:00,18:00,09:00,17:00,00:00,00:00,20,8165,24,0,7,14,"경상남도 김해시 분성로48번길 16, 한신타워아파트 관리동 2층(외동)",경상남도 김해시청,055-337-5151,,88,http://lib.gimhae.go.kr,35.2308061,128.8537536,2022-06-15,5350000,경상남도 김해시
화정글샘도서관,경상남도,김해시,공공도서관,마지막주 월요일+국가지정공휴일,09:00,22:00,09:00,18:00,00:00,00:00,128,112372,115,10359,7,14,경상남도 김해시 삼계중앙로13번길 19(삼계동),경상남도 김해시청,055-330-2971,,4245,http://lib.gimhae.go.kr,35.26212698,128.8662657,2022-06-15,5350000,경상남도 김해시
활천행복작은도서관,경상남도,김해시,작은도서관,매주월요일+일요일+국가지정공휴일,09:00,18:00,09:00,18:00,00:00,00:00,36,7741,0,75,7,14,"경상남도 김해시 인제로11번길 51, 활천동주민센터 2층(삼정동)",경상남도 김해시청,055-337-5544,,95,http://lib.gimhae.go.kr,35.22890489,128.8998574,2022-06-15,5350000,경상남도 김해시
꿈틀작은도서관,대구광역시,남구,작은도서관,매주월요일+매주일요일+국가지정공휴일,10:00,18:00,10:00,17:00,00:00,00:00,40,12529,25,30,10,14,"대구광역시 남구 성명공원길 18, 2층(대명동)",(사)대구시남구새마을회,053-621-8667,,121.5,,35.8479555,128.5723398,2022-07-14,3440000,대구광역시 남구
대명어울림도서관,대구광역시,남구,공공도서관,매주월요일+매주일요일+국가지정공휴일,09:00,20:00,09:00,17:00,00:00,00:00,184,13094,30,454,10,14,대구광역시 남구 두류공원로 38-1,대구광역시 남구청,053-664-3552,340,675.36,https://library.daegu.go.kr,35.84157307,128.573785,2022-07-14,3440000,대구광역시 남구
이천어울림도서관,대구광역시,남구,공공도서관,매주월요일+매주일요일+국가지정공휴일,09:00,20:00,09:00,17:00,00:00,00:00,203,25054,30,581,10,14,대구광역시 남구 이천로 124,대구광역시 남구청,035-664-3571,897,1260,https://library.daegu.go.kr,35.85239157,128.5988143,2022-07-14,3440000,대구광역시 남구
선비마을작은도서관,경상남도,산청군,작은도서관,토+국가지정공휴일,09:00,18:00,00:00,00:00,00:00,00:00,12,14991,0,0,7,7,경상남도 산청군 시천면 남명로234번길 31,경상남도 산청군청,055-974-0190,,69,,35.27613314,127.8447867,2022-07-13,5450000,경상남도 산청군
정보과학도서관,경기도,과천시,공공도서관,금+국가지정공휴일+개관 기념일,09:00,22:00,09:00,18:00,09:00,18:00,540,319917,155,23726,10,14,경기도 과천시 중앙로 24,경기도 과천시청,02-2150-3008,24080,10027,http://www.gclib.go.kr,37.418729,126.989709,2022-07-09,3970000,경기도 과천시
문원도서관,경기도,과천시,공공도서관,첫째 주 금+둘째 주 금+국가지정 공휴일+개관 기념일,09:00,22:00,09:00,18:00,09:00,18:00,220,68498,144,1315,10,14,경기도 과천시 문원로 104,경기도 과천시청,02-2150-3080,1249,2538,http://www.gclib.go.kr/mw,37.42495599,127.007416,2022-07-09,3970000,경기도 과천시
고운작은도서관,경상남도,함양군,작은도서관,매주토요일+일요일,09:00,18:00,00:00,00:00,00:00,00:00,10,2500,5,20,0,0,경상남도 함양군 휴천면 문하길 30-3,,,,,,,,2022-07-11,5460000,경상남도 함양군
구세군사랑듬book작은도서관,경상남도,함양군,작은도서관,매주토요일+일요일,13:00,17:00,00:00,00:00,00:00,00:00,12,1100,4,0,0,0,경상남도 함양군 안의면 갈촌길 5,,,,,,,,2022-07-11,5460000,경상남도 함양군
성당하늘채도서관,대구광역시,달서구,작은도서관,토+일+법정공휴일,15:00,19:00,00:00,00:00,00:00,00:00,36,12566,0,128,5,8,"대구광역시 달서구 장기로 160 (감삼동, 성당코오롱하늘채)",,053-525-5957,,116.7,,35.84443764,128.5421725,2022-03-31,3470000,대구광역시 달서구
진천역화성파크리젠시도서관,대구광역시,달서구,작은도서관,화+목+토+일+법정공휴일,14:00,18:00,00:00,00:00,00:00,00:00,18,6932,6,80,3,7,"대구광역시 달서구 월배로11길 9-15 (유천동, 진천역화성파크리젠시)",,070-4243-8737,,58.6,,35.81343468,128.5189433,2022-03-31,3470000,대구광역시 달서구
광주제일교회도서관,광주광역시,서구,작은도서관,"매주월요일, 국가지정공휴일",10:00,18:00,10:00,18:00,10:00,18:00,84,10300,0,0,3,14,광주광역시 서구 치평동 상무공원로 56 광주제일교회,,062-382-1004,,165,,35.14958185,126.8434732,2021-10-26,3600000,광주광역시 서구
광주천사계작은도서관,광주광역시,서구,작은도서관,"매주일요일, 국가지정공휴일",09:00,18:00,09:00,18:00,09:00,18:00,29,20000,0,0,0,0,광주광역시 서구 치평동 상무공원로 56 광주제일교회,사단법인 꿈과도전,062-383-2006,,79,http://cafe.daum.net/youthdreamchallenge,35.166683,126.8588384,2021-10-26,3600000,광주광역시 서구
광주학생교육문화회관,광주광역시,서구,공공도서관,"매월 둘째, 넷째 월요일, 법정공휴일, 개관기념일(9월3일)",09:00,18:00,09:00,17:00,00:00,00:00,696,194139,58,8262,5,15,광주광역시 서구 상무 민주로 61,광주광역시 교육청,062-380-8800,14877,18332.72,http://lib.gen.go.kr/,35.155766,126.8585829,2021-10-26,3600000,광주광역시 서구
광주학생독립,광주광역시,서구,공공도서관,"매월 첫째, 셋째 월요일, 법정공휴일, 개관기념일",09:00,18:00,09:00,17:00,00:00,00:00,1411,206269,82,2153,5,15,광주광역시 서구 화정동 학생독립로 30 광주학생독립운동기념관,광주광역시 교육청,062-221-5500,65837,13783,http://lib.gen.go.kr/,35.14058875,126.8650218,2021-10-26,3600000,광주광역시 서구
광천사랑숲작은도서관,광주광역시,서구,작은도서관,매주 월요일,09:00,18:00,09:00,18:00,09:00,18:00,65,9200,2,50,2,3,광주광역시 서구 칠성로43번길 11,,062-714-3177,282,282.39,,35.1674834400,126.8622289588,2021-10-26,3600000,광주광역시 서구
교육과희망 작은도서관,광주광역시,서구,작은도서관,무휴,10:00,18:00,10:00,18:00,10:00,18:00,15,3000,0,0,3,14,광주광역시 서구 금부로95번길 43,,062-382-0979,,40.47,,35.14350843,126.8580686,2021-10-26,3600000,광주광역시 서구
글마루작은도서관,광주광역시,서구,작은도서관,무휴,09:00,18:00,09:00,18:00,09:00,18:00,20,1000,0,0,2,7,광주광역시 서구 발산로 36,,062-369-8072,,40,,35.15831031,126.8949601,2021-10-26,3600000,광주광역시 서구
금호2동작은도서관,광주광역시,서구,작은도서관,"매주일요일, 국가지정공휴일",09:00,18:00,09:00,17:00,09:00,18:00,60,12000,0,0,0,0,광주광역시 서구 풍금로 135 금호2동주민센터,금호2동주민센터,062-675-4504,133,984,,35.12899182,126.857155,2021-10-26,3600000,광주광역시 서구
기아꿈터어린이도서관,광주광역시,서구,작은도서관,"매주일요일, 국가지정공휴일",10:00,18:00,10:00,18:00,10:00,18:00,50,5500,0,0,0,0,광주광역시 서구 화운로 277,기아자동차㈜,062-370-1811,,132,,35.1635742884,126.8652274437,2021-10-26,3600000,광주광역시 서구
꿈꾸는터전작은도서관,광주광역시,서구,작은도서관,"매주월요일, 토요일, 국가지정공휴일",10:00,18:00,10:00,14:00,00:00,00:00,50,2500,0,0,0,0,"광주광역시 서구 치평로 80, 406호",꿈꾸는터전작은도서관,,,83.37,,35.15451731,126.8477075791,2021-10-26,3600000,광주광역시 서구
꿈빛도서관,광주광역시,서구,작은도서관,국가지정공휴일,09:00,22:00,09:00,22:00,09:00,22:00,21,9500,0,0,2,7,광주광역시 서구 천변좌하로 594(광천동),월드비전 무진종합사회복지관,062-372-2600,1689,501.68,http://www.gjw.or.kr/moojin/,35.168644,126.8754932,2021-10-26,3600000,광주광역시 서구
꿈일굼터 작은도서관,광주광역시,서구,작은도서관,"매주일요일, 국가지정공휴일",10:00,18:00,10:00,18:00,10:00,18:00,36,4471,0,0,2,14,광주광역시 서구 화정로 87-1,시영종합사회복지관,062-373-0360,84,84,,35.1461120404,126.8672522,2021-10-26,3600000,광주광역시 서구
동원4차작은도서관,경상남도,양산시,작은도서관,"토요일, 법정공휴일",10:00,16:00,00:00,00:00,00:00,00:00,18,1202,0,0,2,7,경상남도 양산시 물금읍 백호로 155,,,58,58,http://lib.yangsan.go.kr,35.313881,129.010264,2021-10-07,5380000,경상남도 양산시
나눔작은도서관,경상남도,양산시,작은도서관,"일요일, 법정공휴일",11:00,18:00,11:00,18:00,00:00,00:00,30,1581,0,0,3,7,경상남도 양산시 평산로 116-1,,,30,30,http://lib.yangsan.go.kr,35.382606,129.141964,2021-10-07,5380000,경상남도 양산시
동화마을작은도서관,경상남도,양산시,작은도서관,"토요일, 법정공휴일",10:00,16:00,00:00,00:00,00:00,00:00,58,2005,0,0,3,7,경상남도 양산시 물금읍 야리로 50,,,143,143,http://lib.yangsan.go.kr,35.315644,129.002424,2021-10-07,5380000,경상남도 양산시
정산도서관,충청남도,청양군,공공도서관,"매주 월요일, 정부에서 지정하는 공휴일, 국경일",09:00,21:00,09:00,21:00,09:00,18:00,120,37934,20,832,37934,14,충청남도 청양군 정산면 역말길 5-5,충청남도 청양군,041-940-2555,6616,1762,http://lib.cheongyang.go.kr,36.41292247,126.9513219,2021-10-13,4590000,충청남도 청양군
시립중앙도서관,경기도,광주시,공공도서관,매주 월요일+국가지정공휴일,09:00,22:00,09:00,18:00,09:00,18:00,798,306999,207,15980,7,14,경기도 광주시 문화로 82,경기도 광주시청,031-760-5678,7726,4826,http://lib.gjcity.go.kr,37.41063314,127.2531348,2021-10-05,5540000,경기도 광주시
오포도서관,경기도,광주시,공공도서관,매주 금요일+국가지정공휴일,09:00,22:00,09:00,18:00,09:00,18:00,371,101098,77,4038,7,14,경기도 광주시 오포읍 오포로885,경기도 광주시청,031-760-5697,2566,1580,http://lib.gjcity.go.kr,37.3693774,127.2313694,2021-10-05,5540000,경기도 광주시
초월도서관,경기도,광주시,공공도서관,매주 금요일+국가지정공휴일,09:00,22:00,09:00,18:00,09:00,18:00,549,97937,78,2427,7,14,경기도 광주시 초월읍 무들로 3-26,경기도 광주시청,031-760-5688,4427,2947,http://lib.gjcity.go.kr,37.38738172,127.2910941,2021-10-05,5540000,경기도 광주시
곤지암도서관,경기도,광주시,공공도서관,매주 월요일+국가지정공휴일,09:00,22:00,09:00,18:00,09:00,18:00,297,94346,79,4295,7,14,경기도 광주시 곤지암읍 곤지암로 11번길 47,경기도 광주시청,031-760-5666,3958,1665,http://lib.gjcity.go.kr,37.34906936,127.3410158,2021-10-05,5540000,경기도 광주시
광주아름다운작은도서관,광주광역시,북구,작은도서관,없음,10:00,18:00,10:00,18:00,00:00,00:00,20,3500,0,0,3,7,광주광역시 북구 일곡마을로 78(일곡동),,062-572-0309,,82.5,,35.20557171,126.8925799,2021-06-28,3620000,광주광역시 북구
그리심문고,광주광역시,북구,작은도서관,매주 일요일,10:00,18:00,09:00,18:00,00:00,00:00,62,4000,0,0,3,7,광주광역시 북구 풍동길 20(풍향동),,062-515-8209,,99,,35.16605338,126.9216977,2021-06-28,3620000,광주광역시 북구
기쁘고즐거운도서관,광주광역시,북구,작은도서관,매주 일요일,10:00,20:00,10:00,18:00,00:00,00:00,30,2500,2,0,3,7,"광주광역시 북구 북문대로 7, 1층(운암동)",,062-401-4800,,91.11,,35.17329157,126.8838667,2021-06-28,3620000,광주광역시 북구
분성아이파크작은도서관,경상남도,김해시,작은도서관,매주월요일+일요일+국가지정공휴일,09:30,18:30,09:00,17:00,00:00,00:00,20,8503,4,0,7,14,"경상남도 김해시 삼계로 232, 관리동 지하1층(삼계동, 현대분성마을아이파크1차아파트)",경상남도 김해시청,055-331-5301,,125,http://lib.gimhae.go.kr,35.26743578,128.8692348,2022-06-15,5350000,경상남도 김해시
불암동작은도서관,경상남도,김해시,작은도서관,매주월요일+일요일+국가지정공휴일,09:00,18:00,09:00,17:00,00:00,00:00,34,10562,25,150,7,14,"경상남도 김해시 식만로 389-5, 선암마을회관 3층(불암동)",경상남도 김해시청,055-336-7879,,138,http://lib.gimhae.go.kr,35.22241654,128.9259754,2022-06-15,5350000,경상남도 김해시
삼계로얄작은도서관,경상남도,김해시,작은도서관,매주월요일+일요일+국가지정공휴일,09:00,18:00,09:00,18:00,00:00,00:00,28,11696,3,453,7,14,"경상남도 김해시 가야로 58-1, 관리동 2층(삼계동, 동원로얄듀크아파트)",경상남도 김해시청,055-311-2151,,135,http://lib.gimhae.go.kr,35.26943833,128.8668753,2022-06-15,5350000,경상남도 김해시
삼계푸르지오작은도서관,경상남도,김해시,작은도서관,매주월요일+일요일+국가지정공휴일,10:00,18:00,09:00,17:00,00:00,00:00,45,9932,4,280,7,14,"경상남도 김해시 가야로 19, 관리동 2층 (삼계동, 분성마을5단지푸르지오아파트)",경상남도 김해시청,055-339-7870,,158,http://lib.gimhae.go.kr,35.27235791,128.862689,2022-06-15,5350000,경상남도 김해시
생각이크는작은도서관,경상남도,김해시,작은도서관,매주수요일+일요일+국가지정공휴일,09:30,18:30,09:30,18:30,00:00,00:00,15,9605,0,1,7,14,"경상남도 김해시 진영읍 김해대로361번길 31, 관리동 지하1층(진영자이아파트)",경상남도 김해시청,070-7774-4406,,118,http://lib.gimhae.go.kr,35.30906213,128.7284535,2022-06-15,5350000,경상남도 김해시
생림작은도서관,경상남도,김해시,작은도서관,매주월요일+토요일+일요일+국가지정공휴일,09:00,18:00,00:00,00:00,00:00,00:00,6,3128,3,43,7,14,"경상남도 김해시 생림면 봉림로 34-10, 생림복지센터 1층(생림면)",경상남도 김해시청,055-321-0308,,33,http://lib.gimhae.go.kr,35.32773042,128.8495091,2022-06-15,5350000,경상남도 김해시
석봉마을작은도서관,경상남도,김해시,작은도서관,매주월요일+일요일+국가지정공휴일,09:00,18:00,09:00,18:00,00:00,00:00,24,5554,5,1,7,14,"경상남도 김해시 금관대로599번길 11-1, 대동1단지 복리동2층(무계동)",경상남도 김해시청,070-8165-0213,,122,http://lib.gimhae.go.kr,35.20250847,128.8131045,2022-06-15,5350000,경상남도 김해시
소리작은도서관,경상남도,김해시,작은도서관,매주월요일+일요일+국가지정공휴일,09:00,18:00,09:00,17:00,00:00,00:00,50,8393,25,234,7,14,"경상남도 김해시 가락로94번길 7, 중앙상가빌딩 2층(서상동)",경상남도 김해시청,055-314-3657,,255,http://lib.gimhae.go.kr,35.23517632,128.8820843,2022-06-15,5350000,경상남도 김해시
시호미래작은도서관,경상남도,김해시,작은도서관,매주월요일+일요일+국가지정공휴일,10:00,18:00,10:00,18:00,00:00,00:00,30,9989,5,52,7,14,"경상남도 김해시 한림면 한림로 369, 한림면사무소 2층",경상남도 김해시청,055-346-7274,,159,http://lib.gimhae.go.kr,35.32036277,128.8022153,2022-06-15,5350000,경상남도 김해시
안동문화의집작은도서관,경상남도,김해시,작은도서관,매주월요일+토요일+일요일+국가지정공휴일,09:00,18:00,00:00,00:00,00:00,00:00,25,4990,0,0,7,14,경상남도 김해시 삼안로 72,경상남도 김해시청,055-330-3225,,171,http://lib.gimhae.go.kr,35.23562795,128.9179039,2022-06-15,5350000,경상남도 김해시
우리작은도서관,경상남도,김해시,작은도서관,매주월요일+일요일+국가지정공휴일,09:00,18:00,09:00,18:00,00:00,00:00,27,11182,9,0,7,14,"경상남도 김해시 삼문로 88, 복리동 2층(삼문동, 갑오마을11단지부영그린타운아파트)",경상남도 김해시청,055-312-3342,,115,http://lib.gimhae.go.kr,35.19109356,128.8072719,2022-06-15,5350000,경상남도 김해시
월산주공작은도서관,경상남도,김해시,작은도서관,매주월요일+일요일+국가지정공휴일,09:00,18:00,09:00,18:00,00:00,00:00,30,12853,0,0,7,14,경상남도 김해시 월산로 103,경상남도 김해시청,055-311-0261,,118,http://lib.gimhae.go.kr,35.20408651,128.8030146,2022-06-15,5350000,경상남도 김해시
유토피아작은도서관,경상남도,김해시,작은도서관,매주월요일+일요일+국가지정공휴일,10:00,18:00,10:00,18:00,00:00,00:00,35,7806,28,146,7,14,"경상남도 김해시 인제로 167, 관리동 2층(어방동, 대우유토피아)",경상남도 김해시청,055-312-1300,,179,http://lib.gimhae.go.kr,35.24295841,128.8994583,2022-06-15,5350000,경상남도 김해시
율하e편한작은도서관,경상남도,김해시,작은도서관,매주월요일+일요일+국가지정공휴일,09:00,18:00,09:00,18:00,00:00,00:00,25,8167,3,104,7,14,"경상남도 김해시 율하2로 198, 휘트니스센터 1층(율하동, 율현마을율하e-편한세상)",경상남도 김해시청,055-905-1154,,125,http://lib.gimhae.go.kr,35.17092694,128.8215754,2022-06-15,5350000,경상남도 김해시
이안나누리작은도서관,경상남도,김해시,작은도서관,매주월요일+일요일+국가지정공휴일,09:00,18:00,09:00,18:00,00:00,00:00,26,9333,3,121,7,14,"경상남도 김해시 해반천로278번길 12-27, 커뮤니티센터 1층(삼계동, 삼계이안아파트)",경상남도 김해시청,070-8168-0648,,129,http://lib.gimhae.go.kr,35.27421093,128.8677198,2022-06-15,5350000,경상남도 김해시
일동한신꿈나무작은도서관,경상남도,김해시,작은도서관,매주월요일+일요일+국가지정공휴일,09:00,18:00,09:00,17:00,00:00,00:00,20,7454,23,0,7,14,"경상남도 김해시 분성로 14, 일동한신아파트 관리동 2층(외동)",경상남도 김해시청,055-322-4141,,190,http://lib.gimhae.go.kr,35.2291649,128.8489262,2022-06-15,5350000,경상남도 김해시
장유대우작은도서관,경상남도,김해시,작은도서관,매주월요일+일요일+국가지정공휴일,09:00,18:00,09:00,17:00,00:00,00:00,36,15756,23,1,7,14,"경상남도 김해시 팔판로 71, 복리동 2층(관동동, 팔판마을5단지푸르지오아파트)",경상남도 김해시청,055-312-4489,,182,http://lib.gimhae.go.kr,35.176762,128.7946791,2022-06-15,5350000,경상남도 김해시
장유도서관,경상남도,김해시,공공도서관,마지막주 월요일+국가지정공휴일,09:00,22:00,09:00,18:00,00:00,00:00,600,14673,82,6762,7,14,경상남도 김해시 대청로176번길 7(대청동),경상남도 김해시청,055-330-7461,,6901,http://lib.gimhae.go.kr,35.19135403,128.7970325,2022-06-15,5350000,경상남도 김해시
젤미작은도서관,경상남도,김해시,작은도서관,매주월요일+일요일+국가지정공휴일,09:00,18:00,09:00,18:00,00:00,00:00,23,172783,2,1,7,14,"경상남도 김해시 능동로 32, 관리동 지하1층(삼문동, 부영그린타운아파트4단지)",경상남도 김해시청,055-313-4149,,157,http://lib.gimhae.go.kr,35.19627522,128.7983262,2022-06-15,5350000,경상남도 김해시
주촌디딤돌작은도서관,경상남도,김해시,작은도서관,매주월요일+일요일+국가지정공휴일,10:00,18:00,09:00,17:00,00:00,00:00,15,7656,23,0,7,14,"경상남도 김해시 주촌면 서부로1637번길 15, 주촌복지관 2층",경상남도 김해시청,055-329-0079,,107,http://lib.gimhae.go.kr,35.23813949,128.8308035,2022-06-15,5350000,경상남도 김해시
쌍용도서관,충청남도,천안시,공공도서관,첫째 주 월+셋째 주 월+국가지정공휴일,08:00,22:00,08:00,22:00,00:00,00:00,404,176110,97,4465,10,14,충청남도 천안시 서북구 월봉4로 153,충청남도 천안시청,041-521-3731,5631,4792,http://www.cheonan.go.kr/lib.do,36.80040792,127.1146491,2022-05-31,4490000,충청남도 천안시
소주동작은도서관,경상남도,양산시,작은도서관,"토요일, 법정공휴일",09:00,18:00,00:00,00:00,00:00,00:00,42,6789,0,0,3,14,경상남도 양산시 소주회야1길 5-26,,055-392-6773,49,49,http://lib.yangsan.go.kr,35.407386,129.1578165,2021-10-07,5380000,경상남도 양산시
동원비스타마을작은도서관,경상남도,양산시,작은도서관,"토요일, 법정공휴일",14:00,18:00,00:00,00:00,00:00,00:00,31,2226,0,0,5,7,경상남도 양산시 물금읍 범구로 28,,,60,594,http://lib.yangsan.go.kr,35.326421,129.013298,2021-10-07,5380000,경상남도 양산시
아이비북스작은도서관,경상남도,양산시,작은도서관,"토요일, 법정공휴일",09:30,18:00,00:00,00:00,00:00,00:00,24,1018,0,0,2,7,경상남도 양산시 동면 금오13길 38,,,66,66,http://lib.yangsan.go.kr,35.319407,129.026417,2021-10-07,5380000,경상남도 양산시
이지더원2차그랜드파크작은도서관,경상남도,양산시,작은도서관,"토요일, 법정공휴일",13:00,17:00,00:00,00:00,00:00,00:00,70,2759,0,0,5,14,경상남도 양산시 물금읍 물금로 75,,,313,313,http://lib.yangsan.go.kr,35.314407,128.992232,2021-10-07,5380000,경상남도 양산시
동원누리작은도서관,경상남도,양산시,작은도서관,"토요일, 법정공휴일",14:00,18:00,00:00,00:00,00:00,00:00,44,1417,0,0,5,7,경상남도 양산시 동면 금오15길 9,,055-363-7557,71,71,http://lib.yangsan.go.kr,35.317229,129.024423,2021-10-07,5380000,경상남도 양산시
가온작은도서관,경상남도,양산시,작은도서관,"토요일, 법정공휴일",10:00,17:00,00:00,00:00,00:00,00:00,53,1053,0,0,0,0,경상남도 양산시 물금읍 새실로 115,,,176,176,http://lib.yangsan.go.kr,35.312593,129.000221,2021-10-07,5380000,경상남도 양산시
대방7차메가시티작은도서관,경상남도,양산시,작은도서관,월요일,10:00,22:30,10:00,22:30,10:00,22:30,65,1018,0,0,5,7,경상남도 양산시 물금읍 새실로 11,,,159,159,http://lib.yangsan.go.kr,35.316128,128.994085,2021-10-07,5380000,경상남도 양산시
이지더원리버포레작은도서관,경상남도,양산시,작은도서관,"토요일, 법정공휴일",13:00,19:00,00:00,00:00,00:00,00:00,37,1003,0,0,10,7,경상남도 양산시 동면 금오16길 100,,,92,92,http://lib.yangsan.go.kr,35.322582,129.025973,2021-10-07,5380000,경상남도 양산시
대방연리지작은도서관,경상남도,양산시,작은도서관,"일요일, 법정공휴일",14:00,18:00,14:00,16:00,00:00,00:00,52,4470,0,0,3,7,경상남도 양산시 물금읍 야리로76,,,127,127,http://lib.yangsan.go.kr,35.313233,129.004502,2021-10-07,5380000,경상남도 양산시
이지더원5차작은도서관,경상남도,양산시,작은도서관,"토요일, 법정공휴일",16:00,20:00,00:00,00:00,00:00,00:00,48,1002,0,0,3,14,경상남도 양산시 물금읍 물금로 57,,,166,166,http://lib.yangsan.go.kr,35.310269,128.989723,2021-10-07,5380000,경상남도 양산시
인천광역시교육청부평도서관,인천광역시,부평구,공공도서관,목,06:00,22:00,06:00,22:00,06:00,22:00,1051,261415,95,17017,5,15,인천광역시 부평구 경원대로 1191,인천광역시교육청부평도서관,032-510-7300,5663,3374,https://lib.ice.go.kr/bupyeong,37.48499721,126.7045879,2022-08-20,7310504,인천광역시교육청 인천광역시교육청부평도서관
지혜의샘,광주광역시,서구,작은도서관,매주목요일,09:00,18:00,09:00,18:00,09:00,18:00,40,6500,0,0,5,7,광주광역시 서구 풍암중앙로 86번길 2,,062-652-1279,,221,,35.1261509,126.8832951,2021-10-26,3600000,광주광역시 서구
지혜의샘터,광주광역시,서구,작은도서관,"매주일요일, 국가지정공휴일",11:00,21:00,11:00,21:00,11:00,21:00,20,2300,2,0,2,7,광주광역시 서구 풍암중앙로 86번길 2,,062-373-0136,,33,,35.1261772344,126.8832640421,2021-10-26,3600000,광주광역시 서구
지혜의쉼터작은도서관,광주광역시,서구,작은도서관,"매주일요일, 국가지정공휴일",09:30,18:00,09:30,18:00,00:00,00:00,60,9000,0,0,3,7,광주광역시 서구 화운로 24 (화정동) 유니버시아드 힐스테이트 3단지,,070-4223-1173,,131.99,,35.14250727,126.8865353,2021-10-26,3600000,광주광역시 서구
책더하기사랑작은도서관,광주광역시,서구,작은도서관,"매주일요일, 국가지정공휴일",09:00,18:00,09:00,18:00,09:00,18:00,12,17000,0,0,0,0,광주광역시 서구 상무대로 980,광주카톨릭대학교 평생교육원,062-380-2210,,65.75,,35.1502428044,126.8684903912,2021-10-26,3600000,광주광역시 서구
책마을작은도서관,광주광역시,서구,작은도서관,"매주토요일, 매주일요일, 국가지정공휴일",09:00,18:00,09:00,18:00,09:00,18:00,10,1500,0,0,0,0,광주광역시 서구 상무민주로123번길 9-5,,062-654-3927,,107,,35.16127386,126.8584299569,2021-10-26,3600000,광주광역시 서구
책사랑 작은도서관,광주광역시,서구,작은도서관,"매주 일요일, 국가지정 공휴일",10:00,19:00,10:00,19:00,10:00,19:00,30,4511,0,0,0,0,광주광역시 서구 금호동 마재로 23 중흥아파트 상가 상가동,풍암중흥1단지아파트,062-681-4377,,100,,35.13096453,126.8622871,2021-10-26,3600000,광주광역시 서구
푸른빛작은도서관,광주광역시,서구,작은도서관,국가지정공휴일,09:00,20:00,09:00,20:00,09:00,20:00,20,3600,0,0,3,14,광주광역시 서구 쌍학로 47,쌍촌종합사회복지관,062-375-0035,50,49.5,http://www.ssangchon.or.kr,35.1473817149,126.8688313479,2021-10-26,3600000,광주광역시 서구
대동이미지작은도서관,경상남도,양산시,작은도서관,"토요일, 법정공휴일",14:00,18:00,00:00,00:00,00:00,00:00,46,7111,0,0,2,7,경상남도 양산시 대운로 338,,070-8812-2345,101,101,http://lib.yangsan.go.kr,35.415733,129.180247,2021-10-07,5380000,경상남도 양산시
한내들작은도서관,경상남도,양산시,작은도서관,"토요일, 법정공휴일",14:00,18:00,00:00,00:00,00:00,00:00,43,8774,0,0,2,14,경상남도 양산시 삼호로 98,,055-363-5515,69,69,http://lib.yangsan.go.kr,35.407671,129.175298,2021-10-07,5380000,경상남도 양산시
좋은씨앗작은도서관,광주광역시,서구,작은도서관,무휴,08:00,00:00,08:00,00:00,08:00,00:00,30,2416,2,0,2,5,광주광역시 서구 상무자유로181-7,,062-600-7004,,60,,35.152737,126.8538909,2021-10-26,3600000,광주광역시 서구
화성파크드림작은도서관,경상남도,양산시,작은도서관,"토요일, 법정공휴일",14:00,18:00,00:00,00:00,00:00,00:00,45,5253,0,0,5,14,경상남도 양산시 대운5길 7,,055-362-4008,203,203,http://lib.yangsan.go.kr,35.40293261,129.1714199,2021-10-07,5380000,경상남도 양산시
봉우별떨기작은도서관,경상남도,양산시,작은도서관,법정공휴일,14:00,18:00,14:00,17:00,00:00,00:00,45,9682,0,0,2,7,경상남도 양산시 신명로 87,,055-367-3046,122,122,http://lib.yangsan.go.kr,35.386294,129.143293,2021-10-07,5380000,경상남도 양산시
한일양지뜸작은도서관,경상남도,양산시,작은도서관,"토요일, 법정공휴일",14:00,18:00,00:00,00:00,00:00,00:00,48,10558,0,0,6,7,경상남도 양산시 평산로 116,,055-364-2260,72,72,http://lib.yangsan.go.kr,35.382925,129.1414297,2021-10-07,5380000,경상남도 양산시
삼성한마음작은도서관,경상남도,양산시,작은도서관,"토요일, 법정공휴일",13:00,18:00,00:00,00:00,00:00,00:00,42,8805,0,0,3,7,경상남도 양산시 평산중앙로 81,,055-362-0323,115,115,http://lib.yangsan.go.kr,35.386729,129.151034,2021-10-07,5380000,경상남도 양산시
코아루 작은도서관,경상남도,양산시,작은도서관,"토요일, 법정공휴일",14:00,18:00,00:00,00:00,00:00,00:00,50,12089,0,0,2,3,경상남도 양산시 평산북로 54,,055-388-4105,113,113,http://lib.yangsan.go.kr,35.390329,129.1497054,2021-10-07,5380000,경상남도 양산시
동글이작은도서관,경상남도,양산시,작은도서관,"토요일, 법정공휴일",14:00,18:00,00:00,00:00,00:00,00:00,44,5510,0,0,2,7,경상남도 양산시 배움터길 11,,055-362-8409,127,127,http://lib.yangsan.go.kr,35.37936966,129.1465597,2021-10-07,5380000,경상남도 양산시
다숲작은도서관,경상남도,양산시,작은도서관,"토요일, 법정공휴일",13:00,17:00,00:00,00:00,00:00,00:00,38,5114,0,0,2,14,경상남도 양산시 소주로 182,,055-365-2950,90,90,http://lib.yangsan.go.kr,35.41115162,129.1482115,2021-10-07,5380000,경상남도 양산시
천성리버작은도서관,경상남도,양산시,작은도서관,"토요일, 법정공휴일",12:00,18:00,00:00,00:00,00:00,00:00,32,13714,0,0,5,10,경상남도 양산시 소주회야로 75,,055-362-6150,80,80,http://lib.yangsan.go.kr,35.40969589,129.1588524,2021-10-07,5380000,경상남도 양산시
웅상신원아침도시작은도서관,경상남도,양산시,작은도서관,"토요일, 법정공휴일",14:00,18:00,00:00,00:00,00:00,00:00,24,6305,0,0,2,14,경상남도 양산시 대평들5길 16,,055-362-4666,108,108,http://lib.yangsan.go.kr,35.415985,129.163175,2021-10-07,5380000,경상남도 양산시
강서도서관,부산광역시,강서구,공공도서관,월+공휴일,09:00,18:00,09:00,17:00,00:00,00:00,306,121348,57,10939,5,14,부산광역시 강서구 공항로811번길 10(강서브라이트센터 3층),부산광역시 강서구청,051-970-4067,7471,3418,https://library.bsgangseo.go.kr/gslib/,35.18023515,128.9572977,2022-09-30,3360000,부산광역시 강서구
강서기적의도서관,부산광역시,강서구,어린이도서관,월+공휴일,09:00,18:00,09:00,17:00,00:00,00:00,247,49894,59,0,5,14,"부산광역시 강서구 명지오션시티10로 80(명지동, 강서기적의도서관)",부산광역시 강서구청,051-970-2317,2438,1289.18,https://library.bsgangseo.go.kr/gmlib/,35.08616321,128.904741,2022-09-30,3360000,부산광역시 강서구
지사도서관,부산광역시,강서구,공공도서관,월+공휴일,09:00,18:00,09:00,17:00,00:00,00:00,30,13352,0,0,5,14,부산광역시 강서구 과학산단2로20번길 5(지사문화회관 3층),부산광역시 강서구청,051-970-2777,682.86,682.86,https://library.bsgangseo.go.kr/jslib/,35.15093108,128.8312888,2022-09-30,3360000,부산광역시 강서구
신호작은도서관,부산광역시,강서구,작은도서관,월+공휴일,10:00,18:00,10:00,18:00,00:00,00:00,30,4755,13,0,5,14,"부산광역시 강서구 르노삼성대로 14(신호동, 신호문화공원 본관 1층)",부산광역시 강서구청,051-970-2316,156.84,156.84,https://library.bsgangseo.go.kr/gmlib/,,,2022-09-30,3360000,부산광역시 강서구
아이꿈작은도서관,부산광역시,강서구,작은도서관,월+일+공휴일,09:30,17:30,09:30,17:30,00:00,00:00,30,4957,0,0,5,14,"부산광역시 강서구 명지국제6로318번길 58(명지동, 강서구육아종합지원센터 2층)",부산광역시 강서구 강서구육아종합지원센터,051-201-5202,105.8,105.8,http://www.bgscc.or.kr/,,,2022-09-30,3360000,부산광역시 강서구
아우름쉼터북카페,울산광역시,동구,작은도서관,공휴일,08:00,23:00,08:00,23:00,08:00,23:00,16,1486,0,0,5,60,울산광역시 동구 방어진순환도로 733,삼전아이필하모니 입주자대표회의,052-232-7401,,3344,,,,2022-04-29,3710000,울산광역시 동구
대왕암엘크루작은도서관,울산광역시,동구,작은도서관,일+공휴일,10:00,17:00,10:00,17:00,00:00,00:00,20,1985,0,0,0,0,울산광역시 동구 등대4길 26,대왕암엘크루아파트 입주자대표회의,052-236-2393,,78,,,,2022-04-29,3710000,울산광역시 동구
서부징검다리작은도서관,울산광역시,동구,작은도서관,토+일+공휴일,09:00,17:00,00:00,00:00,00:00,00:00,30,1430,0,0,0,0,울산광역시 동구 방어진순환도로 995,서부아파트 입주자대표회의,052-234-5766,,6048,,,,2022-04-29,3710000,울산광역시 동구
경기평생교육학습관,경기도,수원시,공공도서관,월+국가지정공휴일,09:00,20:00,09:00,17:00,09:00,17:00,1332,722502,1816,15066,5,14,경기도 수원시 권선구 권중로 55,경기평생교육학습관,031-259-1028,4958.7,14900,http://lib.goe.go.kr/gglec,37.25229913,127.0321608,2022-05-06,7530861,경기도교육청 경기평생교육학습관
꿈터 작은도서관,경상남도,양산시,작은도서관,법정공휴일,14:00,18:00,11:00,14:00,00:00,00:00,48,7576,0,0,3,8,경상남도 양산시 북정서길 16,,055-363-3865,76,76,http://lib.yangsan.go.kr,35.360215,129.042926,2021-10-07,5380000,경상남도 양산시
우방아이유쉘작은도서관,경상남도,양산시,작은도서관,법정공휴일,14:00,18:00,10:00,12:00,00:00,00:00,44,7144,0,0,5,14,경상남도 양산시 신기강변1길 11,,055-383-2690,72,72,http://lib.yangsan.go.kr,35.35096418,129.0345903,2021-10-07,5380000,경상남도 양산시
미라주글사랑작은도서관,경상남도,양산시,작은도서관,"토요일, 법정공휴일",19:00,21:00,00:00,00:00,00:00,00:00,24,5015,0,0,3,14,경상남도 양산시 회현1길 48,,055-365-3544,81,81,http://lib.yangsan.go.kr,35.346928,129.021759,2021-10-07,5380000,경상남도 양산시
대석햇살작은도서관,경상남도,양산시,작은도서관,법정공휴일,14:00,18:00,10:00,14:00,00:00,00:00,20,6966,0,0,2,7,경상남도 양산시 상북면 양산대로 1360,,055-374-8331,43,43,http://lib.yangsan.go.kr,35.391621,129.051991,2021-10-07,5380000,경상남도 양산시
옹달샘작은도서관,경상남도,양산시,작은도서관,법정공휴일,10:00,22:00,10:00,18:00,00:00,00:00,35,7498,0,0,3,7,경상남도 양산시 상북면 감결길 17,,070-8828-4553,77,77,http://lib.yangsan.go.kr,35.38818354,129.0479878,2021-10-07,5380000,경상남도 양산시
우리동네작은도서관,경상남도,양산시,작은도서관,"월요일, 법정공휴일",14:00,18:00,14:00,18:00,00:00,00:00,17,12040,0,0,3,7,경상남도 양산시 상북면 삼계1길 6,,055-375-2681,66,66,http://lib.yangsan.go.kr,35.417523,129.061993,2021-10-07,5380000,경상남도 양산시
건영캐스빌상앗대문고,경기도,용인시,작은도서관,"매주 토, 일요일",13:00,17:00,13:00,17:00,13:00,17:00,24,7680,0,0,5,14,"경기도 용인시 수지구 죽전로 267, 관리사무소 2층",내대지마을건영캐스빌아파트입주자대표회의,,0,85.57,,37.3327255,127.1256834,2019-04-03,4050000,경기도 용인시
경남초록 작은도서관,경기도,용인시,작은도서관,매주 일요일,16:00,20:00,16:00,20:00,16:00,20:00,38,10138,13,4,5,14,"경기도 용인시 기흥구 흥덕중앙로105번길 41, 관리사무소 1층",흥덕마을11단지경남아너스빌아파트입주자대표회의,,0,175.64,,37.2807498,127.0770693,2019-04-03,4050000,경기도 용인시
공감도서관,경기도,용인시,작은도서관,"매주 토, 일요일",10:00,17:00,10:00,17:00,10:00,17:00,12,1200,2,0,5,14,경기도 용인시 기흥구 흥덕2로 87번길 17 세림프라자 204호(space-공감),예심교회,,0,71.5,,37.27512489,127.0718864,2019-04-03,4050000,경기도 용인시
광교마을45단지 꿈터도서관,경기도,용인시,작은도서관,"매주 토, 일요일",14:30,17:30,14:30,17:30,14:30,17:30,41,5100,9,0,5,14,"경기도 용인시 수지구 광교마을로 11, 커뮤니티센터 1층",광교마을45단지임차인대표회의,031-216-9836,0,233.95,,37.2980696,127.0635206,2019-04-03,4050000,경기도 용인시
광교상현꿈에그린도서관,경기도,용인시,작은도서관,연중무휴,10:00,17:00,10:00,17:00,10:00,17:00,34,3600,0,0,5,14,"경기도 용인시 수지구 수지로 17, 주민공동시설 1층(104동 근처)",광교상현꿈에그린입주자대표회의,,0,118.08,,37.305527,127.074338,2019-04-03,4050000,경기도 용인시
굿모닝작은도서관,경기도,용인시,작은도서관,"매주 토, 일요일",13:00,17:00,13:00,17:00,13:00,17:00,24,14494,5,111,5,14,"경기도 용인시 수지구 동천로 64, 504동 주민공동시설 1층",동문굿모닝힐5차아파트입주자대표회의,031-889-2715,0,180.67,,37.3416672,127.097135,2019-04-03,4050000,경기도 용인시
그루터기도서관,경기도,용인시,작은도서관,"매주 토, 일요일",15:00,17:00,15:00,17:00,15:00,17:00,45,5926,0,0,5,14,"경기도 용인시 기흥구 한보라2로 167, 관리사무소 2층",한보라마을아파트부녀회,031-693-5245,0,107,,37.2428769,127.1085608,2019-04-03,4050000,경기도 용인시
금화작은도서관,경기도,용인시,작은도서관,매주 일요일,13:00,17:00,13:00,17:00,13:00,17:00,50,13567,5,450,5,14,"경기도 용인시 기흥구 금화로58번길 10, 관리사무소 2층",금화마을4단지아파트입주자대표회의,031-309-9042,0,70,,37.2629247,127.110133,2019-04-03,4050000,경기도 용인시
꽃메도서관,경기도,용인시,작은도서관,"매주 토, 일요일",14:00,17:00,14:00,17:00,14:00,17:00,20,7860,0,0,5,14,"경기도 용인시 수지구 죽전로 87, 440동 지하1층",꽃메마을현대4차3단지입주자대표회의,,0,98.06,,37.32260182,127.1175392,2019-04-03,4050000,경기도 용인시
글빛도서관,서울특별시,성북구,공공도서관,월+법정공휴일,09:00,18:00,09:00,18:00,09:00,18:00,194,19562,19,0,5,14,서울특별시 성북구 길음로7길 20,성북문화재단,02-6956-0559,4143,923.67,https://www.sblib.seoul.kr/sblib/,37.60375093,127.0224649,2022-08-16,3070000,서울특별시 성북구
강변마을작은도서관,경상남도,양산시,작은도서관,"토요일, 법정공휴일",14:00,18:00,00:00,00:00,00:00,00:00,55,6555,0,0,5,14,경상남도 양산시 동면 금오13길 71,,070-7367-4069,145,145,http://lib.yangsan.go.kr,35.319779,129.023052,2021-10-07,5380000,경상남도 양산시
이편한마을작은도서관,경상남도,양산시,작은도서관,"토요일, 법정공휴일",12:00,17:00,00:00,00:00,00:00,00:00,50,7192,0,0,5,14,경상남도 양산시 동면 금오16길 65,,070-7345-0053,98,98,http://lib.yangsan.go.kr,35.3215325,129.0284806,2021-10-07,5380000,경상남도 양산시
대동아파트작은도서관,경상남도,양산시,작은도서관,"토요일, 법정공휴일",13:00,17:00,00:00,00:00,00:00,00:00,42,13922,0,0,5,14,경상남도 양산시 양주로 154,,055-382-2009,109,109,http://lib.yangsan.go.kr,35.33764556,129.034047,2021-10-07,5380000,경상남도 양산시
e- 편한작은도서관,경상남도,양산시,작은도서관,법정공휴일,13:00,17:00,00:00,00:00,00:00,00:00,42,10825,0,0,5,14,경상남도 양산시 양주로 33,,055-386-1170,82,82,http://lib.yangsan.go.kr,35.33422959,129.025556,2021-10-07,5380000,경상남도 양산시
청어람아파트새마을문고,경상남도,양산시,작은도서관,"토요일, 법정공휴일",10:00,17:00,00:00,00:00,00:00,00:00,52,15590,0,0,5,7,경상남도 양산시 양주로 94,,055-366-8831,130,130,http://lib.yangsan.go.kr,35.33183999,129.0337547,2021-10-07,5380000,경상남도 양산시
책사랑작은도서관,경상남도,양산시,작은도서관,"토요일, 법정공휴일",10:00,18:00,00:00,00:00,00:00,00:00,30,2807,0,0,3,7,경상남도 양산시 양주로 153,,055-374-8331,43,43,http://lib.yangsan.go.kr,35.33808863,129.0307802,2021-10-07,5380000,경상남도 양산시
동원로얄듀크작은도서관,경상남도,양산시,작은도서관,"토요일, 법정공휴일",14:00,18:00,00:00,00:00,00:00,00:00,45,11995,0,0,5,14,경상남도 양산시 양주로 32,,055-364-7709,133,133,http://lib.yangsan.go.kr,35.33049136,129.0268598,2021-10-07,5380000,경상남도 양산시
디딤돌작은도서관,경상남도,양산시,작은도서관,법정공휴일,10:00,17:00,10:00,12:00,00:00,00:00,60,15645,0,0,5,14,경상남도 양산시 양주로 39,,055-388-5455,179,179,http://lib.yangsan.go.kr,35.33303429,129.0272636,2021-10-07,5380000,경상남도 양산시
쌍용하늘 작은도서관,경상남도,양산시,작은도서관,"토요일, 법정공휴일",14:00,18:00,00:00,00:00,00:00,00:00,30,10803,0,0,5,14,경상남도 양산시 양주로 97,,055-910-3034,40,40,http://lib.yangsan.go.kr,35.33372909,129.0311673,2021-10-07,5380000,경상남도 양산시
경남아너스빌작은도서관,경상남도,양산시,작은도서관,"토요일, 법정공휴일",13:30,18:00,00:00,00:00,00:00,00:00,48,10255,0,0,5,14,경상남도 양산시 양주로 16,,070-8167-7990,134,134,http://lib.yangsan.go.kr,35.33039922,129.0241525,2021-10-07,5380000,경상남도 양산시
신기주공작은도서관,경상남도,양산시,작은도서관,"토요일, 법정공휴일",14:00,18:00,00:00,00:00,00:00,00:00,47,12770,0,0,3,7,경상남도 양산시 신기서길 19,,055-389-0068,60,60,http://lib.yangsan.go.kr,35.35300245,129.0396807,2021-10-07,5380000,경상남도 양산시
우정아이파크작은도서관,울산광역시,중구,작은도서관,일,15:00,00:00,15:00,22:00,00:00,00:00,42,2000,1,0,3,14,울산광역시 중구 우정2길 45(우정동),,052-244-0073,,,,35.56152487,129.3096662,2022-09-22,3690000,울산광역시 중구
우정엘에이치1단지아파트작은도서관,울산광역시,중구,작은도서관,토+일,14:00,16:00,00:00,00:00,00:00,00:00,10,2000,0,0,3,14,울산광역시 중구 종가로 668-9(서동),,052-211-2247,,,,35.58146704,129.3413000196,2022-09-22,3690000,울산광역시 중구
우정혁신LH2차책사랑,울산광역시,중구,작은도서관,토+일,14:00,17:00,00:00,00:00,00:00,00:00,12,1300,0,0,3,14,울산광역시 중구 종가로 142(태화동),,052-242-9800,,,,35.55982183,129.2922078,2022-09-22,3690000,울산광역시 중구
유곡푸르지오책마루도서관,울산광역시,중구,작은도서관,토+일,14:00,17:00,00:00,00:00,00:00,00:00,32,3891,2,36,3,14,울산광역시 중구 평동3길 1(유곡동),,052-248-7897,,,,35.56097278,129.3051821,2022-09-22,3690000,울산광역시 중구
작은여우숲도서관,울산광역시,중구,작은도서관,토+일,15:00,19:00,00:00,00:00,00:00,00:00,20,14740,0,0,3,14,"울산광역시 중구 종가4길 10(유곡동, 동원로얄듀크2차)",,052-245-4822,,,,35.56168091,129.2932065,2022-09-22,3690000,울산광역시 중구
지구촌작은도서관,울산광역시,중구,작은도서관,토+일,10:00,17:00,00:00,00:00,00:00,00:00,6,1284,0,0,3,14,"울산광역시 중구 북부순환도로 871, 4층(서동)",,052-296-7121,,,,35.58094462,129.3453065,2022-09-22,3690000,울산광역시 중구
책의숲,울산광역시,중구,작은도서관,토+일,14:00,17:00,00:00,00:00,00:00,00:00,20,5688,0,0,3,14,울산광역시 중구 평동3길 2(유곡동),,052-246-0015,,,,35.55894932,129.3028085,2022-09-22,3690000,울산광역시 중구
토닥토닥작은도서관,울산광역시,중구,작은도서관,월+토+일,11:00,17:00,00:00,00:00,00:00,00:00,10,1202,0,0,3,14,울산광역시 중구 학성공원 6길 21 (학성동),,,,,,35.55347612,129.3392941,2022-09-22,3690000,울산광역시 중구
페다고지,울산광역시,중구,작은도서관,토+일,10:00,18:00,00:00,00:00,00:00,00:00,30,3031,3,250,3,14,울산광역시 중구 신기1길 38 2층 (태화동),,052-244-9654,,,,35.5634752,129.3372937,2022-09-22,3690000,울산광역시 중구
해오름작은도서관,울산광역시,중구,작은도서관,토+일,11:00,15:00,00:00,00:00,00:00,00:00,25,2000,0,0,3,14,울산광역시 중구 남외로 88(남외동),,052-296-4332,,,,35.56824674,129.3459172,2022-09-22,3690000,울산광역시 중구
마제스타워 울산작은도서관,울산광역시,중구,작은도서관,휴관중,00:00,00:00,00:00,00:00,00:00,00:00,30,2300,0,0,3,14,울산광역시 중구 학성로 1 (우정동),,052-212-2345,,,,35.55348871,129.3118209,2022-09-22,3690000,울산광역시 중구
제천시립도서관,충청북도,제천시,공공도서관,매주 월요일+법정공휴일,09:00,23:00,09:00,23:00,09:00,23:00,156,188363,3625,11818,10,14,충청북도 제천시 내제로318,충청북도 제천시청,043-646-2019,15331,2800.36,https://www.jecheon.go.kr/jclib/index.do,37.145061,128.220136,2022-09-28,4400000,충청북도 제천시
의병도서관,충청북도,제천시,공공도서관,매주 월요일+법정공휴일,09:00,20:00,09:00,20:00,09:00,20:00,0,15503,50,167,10,14,충청북도 제천시 내제로318,충청북도 제천시청,043-641-3726,,2055.66,https://www.jecheon.go.kr/jclib/index.do,37.145061,128.220136,2022-09-28,4400000,충청북도 제천시
제천여성도서관,충청북도,제천시,공공도서관,매주 월요일+법정공휴일,09:00,23:00,09:00,23:00,09:00,23:00,144,62955,984,0,10,14,충청북도 제천시 독순로 70,충청북도 제천시청,043-646-6561,344,964.92,https://www.jecheon.go.kr/jclib/index.do,37.13888265,128.2106304,2022-09-28,4400000,충청북도 제천시
삽교공공도서관,충청남도,예산군,공공도서관,"매주월요일,국가지정공휴일",09:00,21:00,09:00,18:00,00:00,00:00,162,79640,20,394,4,10,충청남도 예산군 삽교읍 두리별리길 34,충청남도 예산군청,041-339-8225,2083,772,www.ysplib.go.kr,36.692174,126.743207,2022-04-21,4610000,충청남도 예산군
구립김영삼도서관,서울특별시,동작구,공공도서관,"매주 월요일, 법정공휴일",09:00,22:00,09:00,17:00,00:00,00:00,245,32251,45,151,5,14,서울특별시 동작구 매봉로1,서울특별시 동작구청,02-827-0557,1245,6492.72,http://lib.dongjak.go.kr/,37.50547361,126.9499672,2022-04-20,3190000,서울특별시 동작구
사당솔밭도서관,서울특별시,동작구,공공도서관,"매주 월요일, 법정공휴일",09:00,22:00,09:00,17:00,00:00,00:00,280,65027,31,344,5,14,서울특별시 동작구 솔밭로 86,서울특별시 동작구청,02-585-8411,822.16,1724.86,http://lib.dongjak.go.kr/,37.484056,126.967369,2022-04-20,3190000,서울특별시 동작구
동작어린이도서관,서울특별시,동작구,공공도서관,"매주 월요일, 법정공휴일",09:00,18:00,09:00,17:00,00:00,00:00,130,50442,13,1149,5,14,서울특별시 동작구 장승배기로16길 98,서울특별시 동작구청,02-823-6750,1544,444,http://lib.dongjak.go.kr/,37.50920443,126.943434,2022-04-20,3190000,서울특별시 동작구
대방어린이도서관,서울특별시,동작구,공공도서관,"매주 월요일, 법정공휴일",09:00,18:00,09:00,17:00,00:00,00:00,52,27168,13,342,5,14,서울특별시 동작구 대방동길 55,서울특별시 동작구청,02-813-6740,378,391,http://lib.dongjak.go.kr/,37.50302422,126.9252221,2022-04-20,3190000,서울특별시 동작구
약수도서관,서울특별시,동작구,공공도서관,"매주 월요일, 법정공휴일",09:00,18:00,09:00,17:00,00:00,00:00,47,69841,8,2030,5,14,서울특별시 동작구 양녕로22바길 64,서울특별시 동작구청,02-823-1907,519,598.9,http://lib.dongjak.go.kr/,37.497851,126.9474396,2022-04-20,3190000,서울특별시 동작구
동작샘터도서관,서울특별시,동작구,작은도서관,"매주 월요일, 법정공휴일",09:00,18:00,09:00,17:00,00:00,00:00,22,24346,13,345,5,14,서울특별시 동작구 동작대로29길 63-26,서울특별시 동작구청,02-533-6750,501,241,http://lib.dongjak.go.kr/,37.4883609,126.977553,2022-04-20,3190000,서울특별시 동작구
다울작은도서관,서울특별시,동작구,작은도서관,"매주 월요일, 법정공휴일",09:00,18:00,09:00,17:00,00:00,00:00,20,6797,6,0,5,14,서울특별시 동작구 사당로20길132,서울특별시 동작구청,02-3473-3360,166,183,http://lib.dongjak.go.kr/,37.4788487,126.973246,2022-04-20,3190000,서울특별시 동작구
국사봉숲속작은도서관,서울특별시,동작구,작은도서관,"매주 일요일, 법정공휴일",10:00,18:00,10:00,18:00,00:00,00:00,12,3006,1,0,5,14,서울특별시 동작구 양녕로23길27,서울특별시 동작구청,02-820-9221,36,36,http://lib.dongjak.go.kr/,37.49543206,126.9405909,2022-04-20,3190000,서울특별시 동작구
가좌도서관,경기도,고양시,공공도서관,첫 번째 월+세 번째 월+법정공휴일(일요일 제외),07:00,23:00,07:00,23:00,00:00,00:00,122,73411,117,1273,7,14,경기도 고양시 일산서구 가좌3로 16(가좌동),경기도 고양시청,031-8075-9380,1622,4159.54,https://www.goyanglib.or.kr/MT/index.do,37.68616531,126.7203004,2022-03-31,3940000,경기도 고양시
도림천에서 용나는 작은도서관,서울특별시,관악구,작은도서관,매주 화요일/국가지정공휴일,09:00,18:00,09:00,17:00,00:00,00:00,12,6935,3,127,5,14,서울특별시 관악구 신림로 297,서울특별시 관악구청,02-877-2722,,43.8,http://lib.gwanak.go.kr/,37.4810115,126.929827,2021-10-15,3200000,서울특별시 관악구
꿈나무 영유아도서관,서울특별시,관악구,작은도서관,매주 화요일/국가지정공휴일,09:00,18:00,09:00,17:00,00:00,00:00,50,7018,0,241,5,14,서울특별시 관악구 신림로3길 35,서울특별시 관악구청,02-828-5721,,,http://lib.gwanak.go.kr/,37.46759765,126.9448709,2021-10-15,3200000,서울특별시 관악구
서울대입구역 U-도서관,서울특별시,관악구,작은도서관,국가지정공휴일(설날/추석),06:00,00:00,06:00,00:00,00:00,00:00,0,144,0,0,5,14,서울특별시 관악구 남부순환로 지하 1822,서울특별시 관악구청,00-000-0000,,,http://lib.gwanak.go.kr/,37.48115266,126.9526451,2021-10-15,3200000,서울특별시 관악구
신대방역 U-도서관,서울특별시,관악구,작은도서관,국가지정공휴일(설날/추석),06:00,00:00,06:00,00:00,00:00,00:00,0,48,0,0,5,14,서울특별시 동작구 대림로 2(신대방역),서울특별시 관악구청,00-000-0000,,,http://lib.gwanak.go.kr/,37.48757597,126.9131756,2021-10-15,3200000,서울특별시 관악구
봉천역 U-도서관,서울특별시,관악구,작은도서관,국가지정공휴일(설날/추석),06:00,00:00,06:00,00:00,00:00,00:00,0,112,0,0,5,14,서울특별시 관악구 남부순환로 지하 1721,서울특별시 관악구청,00-000-0000,,,http://lib.gwanak.go.kr/,37.48255622,126.9414953,2021-10-15,3200000,서울특별시 관악구
낙성대역 U-도서관,서울특별시,관악구,작은도서관,국가지정공휴일(설날/추석),06:00,00:00,06:00,00:00,00:00,00:00,0,112,0,0,5,14,서울특별시 관악구 남부순환로 지하 1928,서울특별시 관악구청,00-000-0000,,,http://lib.gwanak.go.kr/,37.47706518,126.9634099591,2021-10-15,3200000,서울특별시 관악구
신림역 U-도서관,서울특별시,관악구,작은도서관,국가지정공휴일(설날/추석),06:00,00:00,06:00,00:00,00:00,00:00,0,112,0,0,5,14,서울특별시 관악구 남부순환로 지하 1614,서울특별시 관악구청,00-000-0000,,,http://lib.gwanak.go.kr/,37.484224,126.9298033,2021-10-15,3200000,서울특별시 관악구
봉현작은도서관,서울특별시,관악구,작은도서관,매주 일요일/국가지정공휴일,09:00,18:00,10:00,17:00,00:00,00:00,24,10491,0,333,8,14,서울특별시 관악구 관악로 255-7,서울특별시 관악구청,070-7163-5167,979,1550,http://lib.gwanak.go.kr/,37.48721429,126.956625,2021-10-15,3200000,서울특별시 관악구
상현도서관,경기도,용인시,공공도서관,"매월 첫 번째, 세 번째 월요일",07:00,22:00,07:00,22:00,07:00,22:00,580,111546,90,1279,7,14,경기도 용인시 수지구 법조로 232,경기도 용인시,031-324-4121,0,0,https://lib.yongin.go.kr/,37.2999750,127.0742442,2019-04-03,4050000,경기도 용인시
구갈희망누리도서관,경기도,용인시,공공도서관,매주 일요일,09:00,18:00,09:00,18:00,09:00,18:00,64,44331,14,999,7,14,경기도 용인시 기흥구 갈곡로 12번길 1,경기도 용인시,031-324-6561,0,0,https://lib.yongin.go.kr/,37.2726108,127.1303200,2019-04-03,4050000,경기도 용인시
청덕도서관,경기도,용인시,공공도서관,"매월 두 번째, 네 번째 월요일",09:00,22:00,09:00,22:00,09:00,22:00,197,75297,78,880,7,14,경기도 용인시 기흥구 구성1로 44,경기도 용인시,031-284-1763,0,0,https://lib.yongin.go.kr/,37.2927981653,127.1474288248,2019-04-03,4050000,경기도 용인시
느티나무도서관,경기도,용인시,공공도서관,"매주 월, 목요일",10:00,22:00,10:00,22:00,10:00,22:00,230,46426,270,2506,5,14,경기도 용인시 수지구 수풍로 116번길 22,느티나무도서관재단,031-262-9124,0,0,http://www.neutinamu.org,37.3339692,127.0960414,2019-04-03,4050000,경기도 용인시
작은도서관 두럭,광주광역시,서구,작은도서관,"매주일요일, 국가지정공휴일",10:00,18:00,10:00,18:00,10:00,18:00,35,3600,0,0,3,14,광주광역시 서구 상무민주로 104,,062-371-3200,,50,,35.16004535,126.8601077,2021-10-26,3600000,광주광역시 서구
작은도서관 봄,광주광역시,서구,작은도서관,"매주일요일, 국가지정공휴일",11:00,20:00,10:00,16:00,00:00,00:00,20,2172,0,0,3,7,광주광역시 서구 풍암신흥로 36,,062-457-0500,,66,,35.12038978,126.867179,2021-10-26,3600000,광주광역시 서구
작은도서관놀이정원,광주광역시,서구,작은도서관,"매주일요일, 국가지정공휴일",10:00,15:00,10:00,15:00,00:00,00:00,8,1300,0,0,0,0,광주광역시 서구 화정로 179번길 24-18,작은도서관놀이정원,,,61.23,,35.1471671,126.8770824,2021-10-26,3600000,광주광역시 서구
중앙나누리 작은도서관,광주광역시,서구,작은도서관,"매주월요일, 국가지정공휴일",09:00,18:00,09:00,18:00,09:00,18:00,60,4392,0,0,10,14,광주광역시 서구 화정로 189번길 25,,062-717-9192,,238,http://cafe.daum.net/j-nanuri,35.1476993315,126.8769669,2021-10-26,3600000,광주광역시 서구
행복한나라 문고,인천광역시,서구,작은도서관,"매주 일요일, 법정공휴일",10:00,18:00,10:00,18:00,00:00,00:00,15,3200,0,2,2,7,인천광역시 서구 완정로178번길 49,,032-266-8845,,,,37.60605688,126.659704,2021-09-30,3560000,인천광역시 서구
회화나무 도서관,인천광역시,서구,작은도서관,"주말, 법정공휴일",09:00,18:00,00:00,00:00,00:00,00:00,20,11446,0,2,2,7,인천광역시 서구 가정로335번길 3,,032-560-3116,,,,37.514608,126.6722843,2021-09-30,3560000,인천광역시 서구
힐데스 작은도서관,인천광역시,서구,작은도서관,"매주 일요일, 법정공휴일",13:00,19:00,13:00,19:00,00:00,00:00,31,1367,0,0,0,0,"인천광역시 서구 청라라임로 17, 청라힐데스하임 아파트 관리동 1층",,032-564-4401,,,,37.52770121,126.6505059,2021-09-30,3560000,인천광역시 서구
가재울 작은도서관,인천광역시,서구,작은도서관,"매주 토,일, 법정공휴일",09:00,18:00,00:00,00:00,00:00,00:00,40,8640,0,0,2,7,인천광역시 서구 장고개로280번길 14,,032-560-3391,,,,37.48748624,126.683403,2021-09-30,3560000,인천광역시 서구
가정골 북카페,인천광역시,서구,작은도서관,"매주 일요일, 법정공휴일",09:00,18:00,10:00,14:00,00:00,00:00,30,5595,0,2,2,7,인천광역시 서구 서달로179번길 12-16,,032-571-8920,,,,37.515517,126.677826,2021-09-30,3560000,인천광역시 서구
가정동 작은도서관,인천광역시,서구,작은도서관,"매주 월요일, 법정공휴일",11:00,17:00,11:00,17:00,00:00,00:00,24,5000,0,20,2,7,"인천광역시 서구 가정로394번길 6, 사도들교회 1층",,032-543-8833,,,,37.51981713,126.6736892,2021-09-30,3560000,인천광역시 서구
거북골 작은도서관,인천광역시,서구,작은도서관,"주말, 법정공휴일",09:00,18:00,00:00,00:00,00:00,00:00,6,14000,0,2,2,7,인천광역시 서구 거북로 116,,032-201-9811,,,,37.5025911,126.6746007,2021-09-30,3560000,인천광역시 서구
건지골 마을문고,인천광역시,서구,작은도서관,"주말, 법정공휴일",09:00,18:00,00:00,00:00,00:00,00:00,28,10050,0,2,2,7,인천광역시 서구 원적로57번길 4,,032-577-7747,,,,37.49250743,126.6800693,2021-09-30,3560000,인천광역시 서구
당하동 꿈도서관,인천광역시,서구,작은도서관,"주말, 법정공휴일",10:00,18:00,00:00,00:00,00:00,00:00,80,10075,0,0,0,0,인천광역시 서구 청마로167번길 19,,032-564-4617,,,,37.59210105,126.6746306,2021-09-30,3560000,인천광역시 서구
원당동 작은도서관,인천광역시,서구,작은도서관,"주말, 법정공휴일",10:00,18:00,00:00,00:00,00:00,00:00,50,12005,0,0,0,0,인천광역시 서구 고산로 24,,032-561-3401,,,,37.59508098,126.7017075,2021-09-30,3560000,인천광역시 서구
금곡하나아파트 문고,인천광역시,서구,작은도서관,"매주 일요일, 법정공휴일",09:00,17:30,09:00,12:00,00:00,00:00,12,4745,0,2,2,7,인천광역시 서구 완정로216번길 5,,032-564-3588,,,,37.60378972,126.6527762,2021-09-30,3560000,인천광역시 서구
꿈꾸는 나무 도서관,인천광역시,서구,작은도서관,"주말, 법정공휴일",14:30,17:00,00:00,00:00,00:00,00:00,30,5944,0,0,0,0,인천광역시 서구 청라에메랄드로 134 호반베르디움 앤 영무예다음 관리동,,032-569-7521,,,,37.5371615,126.6573642,2021-09-30,3560000,인천광역시 서구
꿈꾸는 작은도서관,인천광역시,서구,작은도서관,"매주 화수금토일, 법정공휴일",15:00,18:00,00:00,00:00,00:00,00:00,8,4876,0,2,2,7,"인천광역시 서구 건지로 402, 가좌한신휴플러스 아파트 내",,032-578-7721,,,,37.49526648,126.6844068,2021-09-30,3560000,인천광역시 서구
꿈나무 작은도서관,인천광역시,서구,작은도서관,"주말, 법정공휴일",09:00,18:00,00:00,00:00,00:00,00:00,25,11904,0,2,2,7,인천광역시 서구 가정로112번길 10,,032-560-3188,,,,37.494311,126.672569,2021-09-30,3560000,인천광역시 서구
꿈드림 작은도서관,인천광역시,서구,작은도서관,"매주 월토, 법정공휴일",11:00,18:00,00:00,00:00,00:00,00:00,30,1500,0,0,0,0,인천광역시 서구 봉화로85번길 40-12 66BL 2-3LT,,032-566-2235,,,,37.597958,126.635716,2021-09-30,3560000,인천광역시 서구
꿈마을 작은도서관,인천광역시,서구,작은도서관,"매주 일요일, 법정공휴일",13:00,18:00,10:00,14:00,00:00,00:00,15,1620,0,30,2,7,"인천광역시 서구 승학로 566, 3층",,032-561-1154,,,,37.566352,126.6825031,2021-09-30,3560000,인천광역시 서구
꿈빛도서관,인천광역시,서구,작은도서관,"매주 일요일, 법정공휴일",13:00,18:00,13:00,15:00,00:00,00:00,20,2000,0,10,2,7,"인천광역시 서구 건지로 370, 302호",,032-574-0052,,,,37.49663164,126.6826083,2021-09-30,3560000,인천광역시 서구
꿈사랑 작은도서관,인천광역시,서구,작은도서관,"주말, 법정공휴일",14:00,18:00,00:00,00:00,00:00,00:00,40,9896,0,33,2,7,"인천광역시 서구 검단로 446, 검단e편한세상아파트 내",,032-204-3305,,,,37.6006953,126.6576523,2021-09-30,3560000,인천광역시 서구
느티나무 도서관,인천광역시,서구,작은도서관,법정공휴일,10:00,20:00,10:00,20:00,00:00,00:00,24,6900,0,2,2,7,인천광역시 서구 건지로 348번길 81,,032-581-4048,,,,37.495984,126.680365,2021-09-30,3560000,인천광역시 서구
드림파크 어울림 1단지 문고,인천광역시,서구,작은도서관,"매주 월수목, 법정공휴일",14:00,18:00,00:00,00:00,00:00,00:00,15,4000,0,2,2,7,"인천광역시 서구 봉화로 18, 드림파크어울림1단지 내 작은도서관",,032-561-3807,,,,37.59565987,126.6392635,2021-09-30,3560000,인천광역시 서구
남산그린타운 작은도서관,대구광역시,중구,작은도서관,화+목+토+일+공휴일,15:00,17:00,00:00,00:00,00:00,00:00,30,2200,1,0,3,7,"대구광역시 중구 달구벌대로 1950 남산그린타운 106동, 2층",사립,070-8977-8998,,105,,35.86296738,128.5771574,2022-05-31,3410000,대구광역시 중구
남산휴먼시아 1단지 주민문고,대구광역시,중구,작은도서관,공휴일,09:00,18:00,09:00,13:00,00:00,00:00,6,2860,1,0,0,7,"대구광역시 중구 달구벌대로 1960 남산휴먼시아1단지 104동, 1층",사립,053-257-8600,,35,,35.86312548,128.578219,2022-05-31,3410000,대구광역시 중구
남산기독교종합사회복지관 작은도서관,대구광역시,중구,작은도서관,일+공휴일,09:00,20:00,09:00,14:00,00:00,00:00,40,3600,0,0,3,7,"대구광역시 중구 관덕정길 16, 4층",사립,053-256-5943,,116,,35.86504398,128.5905753,2022-05-31,3410000,대구광역시 중구
남산휴먼시아 2단지 마을도서관,대구광역시,중구,작은도서관,월+화+토+일+공휴일,15:00,17:00,00:00,00:00,00:00,00:00,35,5000,3,0,0,7,"대구광역시 중구 달구벌대로 1970 남산휴먼시아2단지아파트 203동, 1층",사립,053-427-2425,,99,,35.86386055,128.5808385,2022-05-31,3410000,대구광역시 중구
남산다락골 작은도서관,대구광역시,중구,작은도서관,일+공휴일,09:00,18:00,09:00,13:00,00:00,00:00,34,11051,5,0,10,7,대구광역시 중구 남산로4길 112 천주교대구대교구청 여성교육관 교육원 다동 1층,사립,053-254-6115,,48,,35.85984246,128.5878871,2022-05-31,3410000,대구광역시 중구
고맙습니다 이삭 작은도서관,대구광역시,중구,작은도서관,월+일+공휴일,09:00,18:00,10:00,17:00,00:00,00:00,24,5500,12,0,3,15,"대구광역시 중구 국채보상로 541, 5층",사립,053-422-2100,,181,,35.870631,128.589867,2022-05-31,3410000,대구광역시 중구
동네작은도서관,대구광역시,중구,작은도서관,월+공휴일,10:00,18:00,10:00,18:00,00:00,00:00,20,2623,0,22,0,0,대구광역시 중구 국채보상로150길 25,사립,070-8624-9135,,49.5,,35.8671847,128.611523,2022-05-31,3410000,대구광역시 중구
서문시장작은도서관,대구광역시,중구,작은도서관,토+일+공휴일,10:00,19:00,00:00,00:00,00:00,00:00,20,5699,0,0,0,0,대구광역시 중구 큰장로26길 12-5,사립,053-000-0000,,50,,35.868142,128.579041,2022-05-31,3410000,대구광역시 중구
LH바람 작은도서관,대구광역시,달성군,작은도서관,일+공휴일,13:00,18:00,10:00,15:00,00:00,23:59,30,2340,0,0,5,14,대구광역시 달성군 옥포읍 돌미로 51,,,,135,,35.78007071,128.4396678,2022-06-10,3480000,대구광역시 달성군
선으로 가는 선 서예 작은도서관,대구광역시,중구,작은도서관,토+일+공휴일,13:00,22:00,00:00,00:00,00:00,00:00,22,1300,0,0,0,0,"대구광역시 중구 국채보상로152길 2, 3층",사립,053-755-9967,,115.5,,35.86798136,128.613079,2022-05-31,3410000,대구광역시 중구
길을 찾는 작은도서관,대구광역시,중구,작은도서관,토+일+공휴일,09:00,18:00,00:00,00:00,00:00,00:00,12,1050,1,0,0,0,"대구광역시 중구 태평로 253, 3층",사립,053-582-7707,,43,,35.87714534,128.5882543,2022-05-31,3410000,대구광역시 중구
재건도서관,대구광역시,중구,작은도서관,토+일+공휴일,09:00,17:00,00:00,00:00,00:00,00:00,15,3000,0,0,0,0,"대구광역시 중구 동덕로 194, 11층",사립,053-653-0119,,45,,35.871881,128.604892,2022-05-31,3410000,대구광역시 중구
작은도서관 에듀공감,대구광역시,중구,작은도서관,토+일+공휴일,10:00,17:00,00:00,00:00,00:00,00:00,20,2000,0,0,0,0,"대구광역시 중구 태평로 267, 2층",사립,053-572-9405,,50,,35.87861411,128.5813778,2022-05-31,3410000,대구광역시 중구
대구수필작은도서관,대구광역시,중구,작은도서관,토+일+공휴일,10:00,17:00,00:00,00:00,00:00,00:00,15,3500,0,0,0,0,대구광역시 중구 명륜로23길 2,사립,053-746-4321,,172,,35.86029544,128.5964751,2022-05-31,3410000,대구광역시 중구
나다움 성평등 작은도서관,대구광역시,중구,작은도서관,토+일+공휴일,13:00,17:00,00:00,00:00,00:00,00:00,18,1900,0,0,0,0,대구광역시 중구 태평로 141,사립,053-219-9973,,74,,35.87605872,128.5936973,2022-05-31,3410000,대구광역시 중구
인뷰티작은도서관,대구광역시,중구,작은도서관,토+일+공휴일,10:00,21:00,00:00,00:00,00:00,00:00,15,1791,0,0,0,0,"대구광역시 중구 공평로 25, 2층",사립,,,258.9,,35.86630092,128.5996125,2022-05-31,3410000,대구광역시 중구
알파여행도서관,대구광역시,중구,작은도서관,토+일+공휴일,10:00,18:00,00:00,00:00,00:00,00:00,13,4000,0,0,0,0,"대구광역시 중구 동덕로36길 32, 3층",사립,053-428-4242,,94.6,,35.87008051,128.6059988,2022-05-31,3410000,대구광역시 중구
청하면 해아 작은도서관,경상북도,포항시,공공도서관,일+월+법정공휴일,09:00,18:00,09:00,18:00,00:00,00:00,30,5517,0,0,5,14,경상북도 포항시 북구 청하면 청하로 247 (면민복지회관 1층),경상북도 포항시 평생학습원 시립도서관,054-231-6799,88,88,http://phlib.pohang.go.kr/,36.201459,129.340443,2022-06-15,5020000,경상북도 포항시
우리소리도서관,서울특별시,종로구,작은도서관,일+1월1일+설+추석+법정공휴일,09:00,18:00,09:00,18:00,00:00,00:00,40,4189,0,1062,5,15,"서울특별시 종로구 삼일대로30길 47(종로14가동 주민센터 4,5층)",종로문화재단,070-4550-5015,670.1,587.8,http://lib.jongno.go.kr/,37.5744931,126.9902329,2022-04-18,3000000,서울특별시 종로구
원신흥도서관,대전광역시,유성구,공공도서관,월+공휴일,08:00,22:00,08:00,22:00,08:00,22:00,98,16610,56,0,5,14,대전광역시 유성구 노은동로 234번길35(지족동),대전광역시 유성구청,042-601-6970,4782,3717,http://lib.yuseong.go.kr/,36.38210426,127.3204213,2022-06-15,3670000,대전광역시 유성구
포은중앙도서관,경상북도,포항시,공공도서관,첫째 주 월+셋째 주 월+법정공휴일,09:00,22:00,09:00,18:00,00:00,00:00,903,222916,168,32169,5,14,경상북도 포항시 북구 삼호로 31,경상북도 포항시 평생학습원 시립도서관,054-270-4600,6815,9812,http://phlib.pohang.go.kr/,36.043909,129.367582,2022-06-15,5020000,경상북도 포항시
대잠도서관,경상북도,포항시,공공도서관,첫째 주 월+셋째 주 월+법정공휴일,09:00,22:00,09:00,18:00,00:00,00:00,130,141404,32,9253,5,14,"경상북도 포항시 남구 시청로1 (문화동 3층,4층)",경상북도 포항시 평생학습원 시립도서관,054-270-5680,930,1859,http://phlib.pohang.go.kr/,36.018715,129.343853,2022-06-15,5020000,경상북도 포항시
영암도서관,경상북도,포항시,공공도서관,둘째 주 월+넷째 주 월+법정공휴일,09:00,22:00,09:00,18:00,00:00,00:00,314,89265,29,10878,5,14,경상북도 포항시 남구 상공로46번길11,경상북도 포항시 평생학습원 시립도서관,054-270-5685,5665,1743,http://phlib.pohang.go.kr/,36.012823,129.358122,2022-06-15,5020000,경상북도 포항시
오천도서관,경상북도,포항시,공공도서관,첫째 주 월+셋째 주 월+법정공휴일,09:00,22:00,09:00,18:00,00:00,00:00,302,54194,33,35417,5,14,경상북도 포항시 남구 오천읍 정몽주로 566,경상북도 포항시 평생학습원 시립도서관,054-270-5613,2661,2548.23,http://phlib.pohang.go.kr/,35.968579,129.416536,2022-06-15,5020000,경상북도 포항시
동해석곡도서관,경상북도,포항시,공공도서관,둘째 주 월+넷째 주 월+법정공휴일,09:00,22:00,09:00,18:00,00:00,00:00,130,38046,13,5288,5,14,경상북도 포항시 남구 동해면 일월로41번길 19,경상북도 포항시 평생학습원 시립도서관,054-270-4625,4468,1210,http://phlib.pohang.go.kr/,35.990827,129.437494,2022-06-15,5020000,경상북도 포항시
어린이영어도서관,경상북도,포항시,공공도서관,첫째 주 월+셋째 주 월+둘째 주 일+넷째 주 일+법정공휴일,09:00,18:00,09:00,18:00,00:00,00:00,43,24155,13,0,5,14,경상북도 포항시 남구 뱃머리길 39 (평생학습원 5층),경상북도 포항시 평생학습원 시립도서관,054-270-4384,745,745,http://phlib.pohang.go.kr/,36.006859,129.355121,2022-06-15,5020000,경상북도 포항시
연일도서관,경상북도,포항시,공공도서관,둘째 주 월+넷째 주 월+법정공휴일,09:00,22:00,09:00,18:00,00:00,00:00,148,24595,33,0,5,14,경상북도 포항시 남구 연일읍 동문로53번길 8-17,경상북도 포항시 평생학습원 시립도서관,054-270-4626,1248,1171,http://phlib.pohang.go.kr/,35.995909697,129.35100744,2022-06-15,5020000,경상북도 포항시
구룡포도서관,경상북도,포항시,공공도서관,첫째 주 월+셋째 주 월+법정공휴일,09:00,18:00,09:00,18:00,00:00,00:00,210,21204,28,0,5,14,경상북도 포항시 남구 구룡포읍 병포길52번길 17,경상북도 포항시 평생학습원 시립도서관,054-270-5629,16053,5350,http://phlib.pohang.go.kr/,35.982948921,129.55026498,2022-06-15,5020000,경상북도 포항시
죽장면 선바위 작은도서관,경상북도,포항시,공공도서관,일+월+법정공휴일,09:00,18:00,09:00,18:00,00:00,00:00,50,8205,0,121,5,14,경상북도 포항시 북구 죽장면 새마을로 3599 (죽장면복지회관 2층),경상북도 포항시 평생학습원 시립도서관,054-246-3009,213,213,http://phlib.pohang.go.kr/,36.160507,129.094392,2022-06-15,5020000,경상북도 포항시
흥해읍 이팝 작은도서관,경상북도,포항시,공공도서관,일+월+법정공휴일,09:00,18:00,09:00,18:00,00:00,00:00,30,10323,0,0,5,14,경상북도 포항시 북구 흥해읍 한동로 52 (흥해종합문화센터 4층),경상북도 포항시 평생학습원 시립도서관,054-240-7586,74,74,http://phlib.pohang.go.kr/,36.110125,129.347056,2022-06-15,5020000,경상북도 포항시
해도동 바다섬 작은도서관,경상북도,포항시,공공도서관,일+월+법정공휴일,10:00,18:00,10:00,18:00,00:00,00:00,40,7820,0,0,5,14,경상북도 포항시 남구 중앙로 68번길 7 (해도동 경로당 72층),경상북도 포항시 평생학습원 시립도서관,054-282-9896,149,149,http://phlib.pohang.go.kr/,36.019504,129.370472,2022-06-15,5020000,경상북도 포항시
양학동 부학 작은도서관,경상북도,포항시,공공도서관,일+월+법정공휴일,10:00,18:00,10:00,18:00,00:00,00:00,50,12153,0,0,5,14,경상북도 포항시 북구 양학로 17(양학치안센터 2층),경상북도 포항시 평생학습원 시립도서관,054-240-7766,237,237,http://phlib.pohang.go.kr/,36.025425,129.350534,2022-06-15,5020000,경상북도 포항시
두호동 두무치 작은도서관,경상북도,포항시,공공도서관,일+월+법정공휴일,10:00,18:00,10:00,18:00,00:00,00:00,50,7677,0,0,5,14,경상북도 포항시 북구 삼호로203번길 22 (두호동 농업인회관 1층),경상북도 포항시 평생학습원 시립도서관,054-246-0300,254,254,http://phlib.pohang.go.kr/,36.057536,129.374835,2022-06-15,5020000,경상북도 포항시
청림동 푸른숲 작은도서관,경상북도,포항시,공공도서관,일+월+법정공휴일,10:00,18:00,10:00,18:00,00:00,00:00,50,10761,0,0,5,14,경상북도 포항시 남구 동해안로 6001 (청림마을독서실 2층),경상북도 포항시 평생학습원 시립도서관,054-292-0129,333,333,http://phlib.pohang.go.kr/,35.993503,129.408338,2022-06-15,5020000,경상북도 포항시
효곡동 행복 작은도서관,경상북도,포항시,공공도서관,일+월+법정공휴일,10:00,18:00,10:00,18:00,00:00,00:00,40,8030,0,0,5,14,경상북도 포항시 남구 새천년대로 306 (SK뷰1차 관리사무소 2층),경상북도 포항시 평생학습원 시립도서관,070-7779-5400,163,163,http://phlib.pohang.go.kr/,36.005346,129.334191,2022-06-15,5020000,경상북도 포항시
화정어린이도서관,경기도,고양시,어린이도서관,첫 번째 월+세 번째 월+법정공휴일(일요일 제외),09:00,18:00,09:00,18:00,00:00,00:00,0,105323,54,1137,7,14,경기도 고양시 덕양구 화신로 323(화정동),경기도 고양시청,031-8075-9299,1002.1,1688.7,https://www.goyanglib.or.kr/MI/index.do,37.632833,126.826303,2022-03-31,3940000,경기도 고양시
청운문학도서관,서울특별시,종로구,공공도서관,월+1월1일+설+추석,10:00,21:00,10:00,21:00,10:00,19:00,115,34046,0,9,5,15,서울특별시 종로구 자하문로36길 40,종로문화재단,070-4680-4032,1238.5,744.8,http://lib.jongno.go.kr/,37.5903786,126.9659189,2022-04-18,3000000,서울특별시 종로구
아름꿈도서관,서울특별시,종로구,공공도서관,일+1월1일+설+추석,10:00,19:00,10:00,19:00,10:00,19:00,97,28262,0,917,5,15,서울특별시 종로구 종로58가길 19,종로문화재단,02-2237-6644,598.6,524.1,http://lib.jongno.go.kr/,37.5726975,127.0171157,2022-04-18,3000000,서울특별시 종로구
어린이청소년국학도서관,서울특별시,종로구,공공도서관,일+1월1일+설+추석+법정공휴일,10:00,21:00,10:00,19:00,00:00,00:00,80,15425,0,0,5,15,서울특별시 종로구 명륜길 26(명륜동 와룡문화센터 5층),종로문화재단,02-747-8336,1243.8,511.6,http://lib.jongno.go.kr/,37.5886859,126.9955389,2022-04-18,3000000,서울특별시 종로구
삼청공원 숲속도서관,서울특별시,종로구,작은도서관,월+1월1일+설+추석,10:00,18:00,10:00,18:00,10:00,18:00,50,8743,79,6,5,15,서울특별시 종로구 북촌로 134-3,북촌인심협동조합,02-734-3900,11306,206.3,http://lib.jongno.go.kr/,37.5879786,126.9840854,2022-04-18,3000000,서울특별시 종로구
진잠도서관,대전광역시,유성구,공공도서관,월+공휴일,08:00,22:00,08:00,22:00,08:00,22:00,117,75780,70,1584,5,14,대전광역시 유성구 진잠로160번길 19(원내동),대전광역시 유성구청,042-601-6590,1913,2591,http://lib.yuseong.go.kr/,36.30315562,127.3197685,2022-06-15,3670000,대전광역시 유성구
유성도서관,대전광역시,유성구,공공도서관,월+공휴일,08:00,22:00,08:00,22:00,08:00,22:00,186,142630,50,9884,5,14,대전광역시 유성구 대덕대로 507-38(가정동),대전광역시 유성구청,042-601-6530,29063,2466,http://lib.yuseong.go.kr/,36.37842291,127.3759135,2022-06-15,3670000,대전광역시 유성구
노은도서관,대전광역시,유성구,공공도서관,월+공휴일,08:00,22:00,08:00,22:00,08:00,22:00,212,73661,68,1733,5,14,대전광역시 유성구 원신흥남로 59 (원신흥동),대전광역시 유성구청,042-601-6610,7523,3355,http://lib.yuseong.go.kr/,36.33771587,127.3374864,2022-06-15,3670000,대전광역시 유성구
우남작은도서관,경상남도,양산시,작은도서관,"토요일, 법정공휴일",14:00,18:00,00:00,00:00,00:00,00:00,53,13976,0,0,5,14,경상남도 양산시 물금읍 신주로 36,,070-8166-6108,206,206,http://lib.yangsan.go.kr,35.3325612,129.014746,2021-10-07,5380000,경상남도 양산시
휴먼빌둥지작은도서관,경상남도,양산시,작은도서관,"토요일, 법정공휴일",14:00,18:00,00:00,00:00,00:00,00:00,30,9863,0,0,5,14,경상남도 양산시 물금읍 범어로 13,,055-385-5310,46,46,http://lib.yangsan.go.kr,35.333876,129.011784,2021-10-07,5380000,경상남도 양산시
에버빌작은도서관,경상남도,양산시,작은도서관,"토요일, 법정공휴일",14:00,18:00,00:00,00:00,00:00,00:00,42,9098,0,0,5,14,경상남도 양산시 물금읍 신주로 64,,070-4155-3838,72,72,http://lib.yangsan.go.kr,35.33280608,129.0117576,2021-10-07,5380000,경상남도 양산시
우미마을작은도서관,경상남도,양산시,작은도서관,"토요일, 법정공휴일",10:00,18:00,00:00,00:00,00:00,00:00,49,7210,0,0,5,14,경상남도 양산시 물금읍 범어로 77,,055-365-2588,184,184,http://lib.yangsan.go.kr,35.332149,129.012432,2021-10-07,5380000,경상남도 양산시
대방작은도서관,경상남도,양산시,작은도서관,"토요일, 법정공휴일",14:00,18:00,00:00,00:00,00:00,00:00,92,11679,0,0,5,14,경상남도 양산시 물금읍 신주1길 46,,070-8868-7254,288,288,http://lib.yangsan.go.kr,35.32865064,129.0167631,2021-10-07,5380000,경상남도 양산시
꿈을찾는아이들작은도서관,경상남도,양산시,작은도서관,"토요일, 법정공휴일",14:00,18:00,00:00,00:00,00:00,00:00,49,6642,0,0,3,7,경상남도 양산시 물금읍 범어로 57,,055-364-7707,98,98,http://lib.yangsan.go.kr,35.32972812,129.0152833,2021-10-07,5380000,경상남도 양산시
행복작은도서관,경상남도,양산시,작은도서관,"토요일, 법정공휴일",12:00,18:00,00:00,00:00,00:00,00:00,46,6966,0,0,5,14,경상남도 양산시 물금읍 서들로 179,,070-7398-7620,110,110,http://lib.yangsan.go.kr,35.31430681,129.0084653,2021-10-07,5380000,경상남도 양산시
동일숲속작은도서관,경상남도,양산시,작은도서관,"토요일, 법정공휴일",14:00,18:00,00:00,00:00,00:00,00:00,43,7950,0,0,5,14,경상남도 양산시 물금읍 가촌서로 93,,070-4123-8622,71,71,http://lib.yangsan.go.kr,35.32416553,128.9933506,2021-10-07,5380000,경상남도 양산시
반도4차작은도서관,경상남도,양산시,작은도서관,"토요일, 법정공휴일",14:00,18:00,00:00,00:00,00:00,00:00,52,6535,0,0,5,14,경상남도 양산시 물금읍 백호로 91,,055-366-9780,170,170,http://lib.yangsan.go.kr,35.31676128,129.0054019,2021-10-07,5380000,경상남도 양산시
가촌휴먼시아작은도서관,경상남도,양산시,작은도서관,법정공휴일,10:00,16:00,10:00,16:00,00:00,00:00,25,1500,0,0,2,7,경상남도 양산시 물금읍 가촌로 155,,070-7395-0989,166,166,http://lib.yangsan.go.kr,35.32363326,128.9957907,2021-10-07,5380000,경상남도 양산시
바람꽃작은도서관,경상남도,양산시,작은도서관,법정공휴일,14:00,18:00,10:00,14:00,00:00,00:00,42,6645,0,0,2,7,경상남도 양산시 물금읍 청운로 41,,055-366-1230,153,153,http://lib.yangsan.go.kr,35.30856182,128.990179,2021-10-07,5380000,경상남도 양산시
극동작은도서관,경상남도,양산시,작은도서관,법정공휴일,14:00,18:00,14:00,17:00,00:00,00:00,42,13846,0,0,5,7,경상남도 양산시 동면 계석로 10,,055-383-5789,46,46,http://lib.yangsan.go.kr,35.32830194,129.0357298,2021-10-07,5380000,경상남도 양산시
양산타워작은도서관,경상남도,양산시,작은도서관,무휴,10:00,21:00,10:00,21:00,10:00,21:00,85,2500,0,0,0,0,경상남도 양산시 동면 강변로 264,,055-367-9029,320,320,http://lib.yangsan.go.kr,35.32630256,129.0240131,2021-10-07,5380000,경상남도 양산시
구성도서관,경기도,용인시,공공도서관,"매월 첫 번째, 세 번째 월요일",07:00,22:00,07:00,22:00,07:00,22:00,502,148596,89,3922,7,14,경기도 용인시 기흥구 구성로 77번길 17,경기도 용인시,031-324-4131,0,0,https://lib.yongin.go.kr/,37.2967623035,127.1189832704,2019-04-03,4050000,경기도 용인시
죽전도서관,경기도,용인시,공공도서관,"매월 첫 번째, 세 번째 월요일",07:00,22:00,07:00,22:00,07:00,22:00,471,166569,88,3001,7,14,경기도 용인시 수지구 대지로 89,경기도 용인시,031-324-4641,0,0,https://lib.yongin.go.kr/,37.3301254,127.1187650,2019-04-03,4050000,경기도 용인시
기흥도서관,경기도,용인시,공공도서관,"매월 첫 번째, 세 번째 월요일",07:00,22:00,07:00,22:00,07:00,22:00,518,168066,93,3116,7,14,경기도 용인시 기흥구 기흥로 116번길 10,경기도 용인시,031-324-4753,0,0,https://lib.yongin.go.kr/,37.2862231,127.1141009,2019-04-03,4050000,경기도 용인시
흥덕도서관,경기도,용인시,공공도서관,"매월 두 번째, 네 번째 월요일",07:00,22:00,07:00,22:00,07:00,22:00,459,100991,88,897,7,14,경기도 용인시 기흥구 흥덕중앙로 153,경기도 용인시,031-324-4141,0,0,https://lib.yongin.go.kr/,37.2748341,127.0839883,2019-04-03,4050000,경기도 용인시
월곡꿈그림도서관,서울특별시,성북구,공공도서관,월+법정공휴일,09:00,18:00,09:00,18:00,09:00,18:00,82,18999,9,61,5,14,서울특별시 성북구 화랑로13길 17,성북문화재단,02-6549-1553,340,340,https://www.sblib.seoul.kr/sblib/,37.60477971,127.041073,2022-08-16,3070000,서울특별시 성북구
장위행복누림도서관,서울특별시,성북구,공공도서관,월+법정공휴일,09:00,18:00,09:00,18:00,09:00,18:00,60,12775,16,0,5,14,서울특별시 성북구 장위로21다길 53,성북문화재단,02-6906-9390,398,398,https://www.sblib.seoul.kr/sblib/,37.61589067,127.045836,2022-08-16,3070000,서울특별시 성북구
성북길빛도서관,서울특별시,성북구,공공도서관,월+법정공휴일,09:00,18:00,09:00,18:00,09:00,18:00,250,31649,30,1450,5,14,서울특별시 성북구 숭인로8길 52,성북문화재단,02-6949-0031,1396,1397,https://www.sblib.seoul.kr/sblib/,37.60996089,127.026443,2022-08-16,3070000,서울특별시 성북구
경상북도교육청 영주선비도서관,경상북도,영주시,공공도서관,"둘째 주 월+넷째 주 월+일요일을 제외한 관공서의 공휴일(단, 일요일과 기타 공휴일이 겹치는 경우에는 휴관),+특별한 사유로 도서관장이 지정하는 날",08:00,22:00,08:00,22:00,08:00,22:00,440,153036,293,4812,10,14,경상북도 영주시 영주로60번길 38(가흥동),경상북도교육청,054-630-3800,6000,4785,http://www.gbelib.kr/yj/index.do,36.81970647,128.6059676,2022-06-07,8750689,경상북도교육청 경상북도교육청영주선비도서관
경상북도교육청 영주선비도서관 풍기분관,경상북도,영주시,공공도서관,"월+「관공서의 공휴일에 관한 규정」에서 정한 공휴일(단, 일요일이 관공서의 기타 공휴일과 겹치는 경우 휴관),+도서 및 시설물의 정리·수리·기타 사유로 휴관이 불가피한 경우 관장이 지정하여 공고하는 날",09:00,21:00,09:00,21:00,09:00,21:00,420,84968,154,2114,10,14,경상북도 영주시 풍기읍 남원로 152-12(성내리),경상북도교육청,054-637-9811,4889,1002,http://www.gbelib.kr/yjpg/index.do,36.8708481,128.5196599,2022-06-07,8750689,경상북도교육청 경상북도교육청영주선비도서관
해운대인문학도서관,부산광역시,해운대구,공공도서관,매주 월요일 및 국가지정 공휴일,09:00,22:00,09:00,18:00,00:00,00:00,299,96965,94,2899,5,14,부산광역시 해운대구 반여로 132,부산광역시 해운대구청,051-749-6580,1384.8,2996.75,http://www.haeundae.go.kr/library,35.202226380,129.126307621,2022-06-07,3330000,부산광역시 해운대구
반여도서관,부산광역시,해운대구,공공도서관,매주 월요일 및 국가지정 공휴일,09:00,22:00,09:00,18:00,00:00,00:00,162,96682,30,2517,5,14,부산광역시 해운대구 재반로 282번길 38,부산광역시 해운대구청,051-783-4010,992,890.58,http://www.haeundae.go.kr/library,35.2020301553,129.133809269,2022-06-07,3330000,부산광역시 해운대구
재송어린이도서관,부산광역시,해운대구,공공도서관,매주 월요일 및 국가지정 공휴일,09:00,18:00,09:00,18:00,00:00,00:00,219,129441,31,6698,5,14,부산광역시 해운대구 해운대로76번길 35-1,부산광역시 해운대구청,051-749-7631,636,1091.35,http://www.haeundae.go.kr/library,35.18213816,129.121396346,2022-06-07,3330000,부산광역시 해운대구
작은인문학도서관,부산광역시,해운대구,작은도서관,매주 일·월요일 및 국가지정 공휴일,09:00,18:00,09:00,18:00,00:00,00:00,166,18592,16,0,5,14,부산광역시 해운대구 센텀중앙로 170,부산광역시 해운대구청,051-749-2922,138.65,138.65,http://www.haeundae.go.kr/library,35.189632477,129.1184929,2022-06-07,3330000,부산광역시 해운대구
금정도서관,부산광역시,금정구,공공도서관,매주 월요일 및 국가지정 공휴일,09:00,18:00,09:00,18:00,00:00,23:59,1168,249939,101,14057,5,14,부산광역시 금정구 금정도서관로 33(청룡동),부산광역시 금정구청(공립),051-519-5601,8181,8466,http://library.geumjeong.go.kr,35.27261359,129.096181,2022-06-07,3350000,부산광역시 금정구
금샘도서관,부산광역시,금정구,공공도서관,매주 월요일 및 국가지정 공휴일,09:00,22:00,09:00,17:00,00:00,23:59,88,56210,68,571,5,14,"부산광역시 금정구 기찰로94(부곡동), 금샘도서관",부산광역시 금정구청(공립),051-519-5900,3447,4787,https://www.geumjeong.go.kr/gslib/index.geumj,35.2391543592,129.0939607,2022-06-07,3350000,부산광역시 금정구
자우리작은도서관,광주광역시,북구,작은도서관,매주 토·일요일,09:00,18:00,00:00,00:00,00:00,00:00,12,4347,0,0,3,7,"광주광역시 북구 양산택지로34번길 22(양산동, LG그린자이2차관리사무소)",,062-572-5070,,54,,35.20940213,126.8825238,2021-06-28,3620000,광주광역시 북구
주민작은도서관,광주광역시,북구,작은도서관,매주 토·일요일,13:00,19:00,00:00,00:00,00:00,00:00,15,1600,1,0,3,7,광주광역시 북구 용전마을길 9-3(용전동),,062-255-4020,,47.1,,35.23719283,126.8945772,2021-06-28,3620000,광주광역시 북구
주쉼작은도서관,광주광역시,북구,작은도서관,매주 일요일,10:00,17:00,10:00,12:00,00:00,00:00,16,1200,0,0,3,7,"광주광역시 북구 비엔날레로 68, 3층(용봉동)",,062-419-0191,,37.3,,35.1778774,126.8896559,2021-06-28,3620000,광주광역시 북구
중앙동작은도서관,광주광역시,북구,작은도서관,"매주 토·일요일, 국가지정공휴일",09:00,18:00,00:00,00:00,00:00,00:00,9,2545,2,0,5,15,"광주광역시 북구 금재로 30(중앙동, 주민자치센테 내)",광주광역시 북구 중앙동주민센터,062-410-8633,,33,,35.1573194,126.9065781,2021-06-28,3620000,광주광역시 북구
중흥1동작은도서관,광주광역시,북구,작은도서관,"매주 토·일요일, 국가지정공휴일",09:00,18:00,00:00,00:00,00:00,00:00,12,2796,2,0,5,15,"광주광역시 북구 중흥로183번길 7(중흥1동, 주민센터 2층)",광주광역시 북구 중흥1동주민센터,062-410-8604,,44,,35.1616281,126.9137767,2021-06-28,3620000,광주광역시 북구
징검다리 작은도서관,광주광역시,북구,작은도서관,"매주 토·일요일, 국가지정공휴일",09:00,18:00,00:00,00:00,00:00,00:00,30,8160,2,0,5,15,"광주광역시 북구 하서로 195(양산동, 다문화가족지원센터 3층)",북구다문화가족지원센터,070-8768-9462,,112,,35.19308825,126.8764278,2021-06-28,3620000,광주광역시 북구
참좋은작은도서관,광주광역시,북구,작은도서관,매주 토·일요일,13:00,18:00,00:00,00:00,00:00,00:00,6,4000,0,0,3,7,광주광역시 북구 복룡길 2(신용동),,062-574-7009,,99,,35.21451604,126.8665207,2021-06-28,3620000,광주광역시 북구
참터문고,광주광역시,북구,작은도서관,매주 일요일,10:00,19:00,00:00,00:00,00:00,00:00,10,4000,0,0,3,7,광주광역시 북구 반룡로33(용봉동),,062-526-3689,,33.3,,35.17923095,126.9015553,2021-06-28,3620000,광주광역시 북구
책과벗하는사랑방,광주광역시,북구,작은도서관,매주 토·일요일,09:00,18:00,00:00,00:00,00:00,00:00,33,2000,33,0,3,7,광주광역시 북구 매곡로 93(매곡동),,062-575-3034,,85,,35.1930228,126.8902598,2021-06-28,3620000,광주광역시 북구
아영작은도서관,전라북도,남원시,작은도서관,일+월+법정공휴일,09:00,18:00,09:00,18:00,00:00,00:00,22,2242,0,0,5,15,전라북도 남원시 아영면 아백로 380(아영면행정복지센터 옆),아영작은도서관,063-620-4085,,169,https://www.namwon.go.kr/index.do?menuCd=DOM_000000203001006016,35.50864301,127.6128973,2022-06-15,4700000,전라북도 남원시
향교동작은도서관,전라북도,남원시,작은도서관,토+일+법정공휴일,09:00,18:00,00:00,00:00,00:00,00:00,40,2152,0,0,5,15,전라북도 남원시 동림로 116(향교동행정복지센터 내),향교동작은도서관,063-620-4835,,123,https://www.namwon.go.kr/index.do?menuCd=DOM_000000203001006016,35.41802028,127.3845796,2022-06-15,4700000,전라북도 남원시
울주선바위도서관,울산광역시,울주군,공공도서관,"매주 월요일, 국가지정공휴일",09:00,22:00,09:00,18:00,00:00,00:00,418,148647,142,21561,5,14,울산광역시 울주군 범서읍 점촌3길 40,울산광역시 울주군청,052-211-5773,4546,7816,https://uljulib.ulju.ulsan.kr/index.do,35.5731956,129.2374571,2022-03-28,3730000,울산광역시 울주군
울주옹기종기도서관,울산광역시,울주군,공공도서관,"매주 월요일, 국가지정공휴일",09:00,22:00,09:00,18:00,00:00,00:00,180,113275,58,9327,5,14,울산광역시 울주군 온양읍 온양로 38-1,울산광역시 울주군청,052-239-7413,4690,1490,https://uljulib.ulju.ulsan.kr/index.do,35.4128329,129.2765134,2022-03-28,3730000,울산광역시 울주군
울주천상도서관,울산광역시,울주군,공공도서관,"매주 월요일, 국가지정공휴일",09:00,22:00,09:00,18:00,00:00,00:00,125,41839,28,1526,5,14,울산광역시 울주군 범서읍 천상길 60,울산광역시 울주군청,052-243-9096,2092,2990,https://uljulib.ulju.ulsan.kr/index.do,35.5610657,129.2250734,2022-03-28,3730000,울산광역시 울주군
책마을작은도서관,울산광역시,울주군,작은도서관,"매주 토,일요일, 국가지정공휴일",09:00,18:00,00:00,00:00,00:00,00:00,32,7365,14,0,5,14,울산광역시 울주군 청량읍 군청로 1,울산광역시 울주군청,052-224-0090,,238,https://uljulib.ulju.ulsan.kr/index.do,35.5219071,129.2413352,2022-03-28,3730000,울산광역시 울주군
읍성작은도서관,울산광역시,울주군,작은도서관,"매주 월,일요일, 국가지정공휴일",09:00,18:00,09:00,18:00,00:00,00:00,26,4833,0,0,5,14,울산광역시 울주군 언양읍 남문4길 16,울산광역시 울주군 언양읍주민센터,052-264-9071,,118.94,https://uljulib.ulju.ulsan.kr/index.do,35.5660647,129.1215639,2022-03-28,3730000,울산광역시 울주군
온양작은도서관,울산광역시,울주군,작은도서관,"매주 토,일요일, 국가지정공휴일",09:00,18:00,00:00,00:00,00:00,00:00,20,4183,0,0,5,14,울산광역시 울주군 온양읍 남창1길 20,울산광역시 울주군 온양읍주민센터,052-238-9090,,83,https://uljulib.ulju.ulsan.kr/index.do,35.4193735,129.2804005,2022-03-28,3730000,울산광역시 울주군
서귀포시동부도서관,제주특별자치도,서귀포시,공공도서관,월요일+1월1일+설연휴+추석연휴+12월31일,09:00,23:00,09:00,23:00,09:00,23:00,314,70999,31,6959,5,15,제주특별자치도 서귀포시 일주동로 8232,제주특별자치도 서귀포시청,064-767-1524,9985,1424,http://lib.jeju.go.kr/,33.26175816,126.6083179,2022-05-31,6520000,제주특별자치도 서귀포시
늘푸름작은도서관,울산광역시,울주군,작은도서관,"매주 토,일요일, 국가지정공휴일",09:00,18:00,00:00,00:00,00:00,00:00,10,7811,0,0,5,14,울산광역시 울주군 청량읍 신덕하3길 5,울산광역시 울주군 청량읍주민센터,052-257-1755,,61.4,https://uljulib.ulju.ulsan.kr/index.do,35.4930235,129.3059779,2022-03-28,3730000,울산광역시 울주군
고맙습니다물구나무작은도서관,경상남도,양산시,작은도서관,"토요일, 법정공휴일",09:00,18:00,00:00,00:00,00:00,00:00,45,13157,7,0,3,14,경상남도 양산시 서창로 194,경상남도 양산시청,055-366-2121,203,203,http://lib.yangsan.go.kr,35.41633219,129.1731607,2021-10-07,5380000,경상남도 양산시
순지작은도서관,경상남도,양산시,작은도서관,법정공휴일,09:00,18:00,09:00,18:00,09:00,18:00,48,8170,7,0,3,14,경상남도 양산시 하북면 신평중앙길 24,경상남도 양산시청,055-382-7941,191,191,http://lib.yangsan.go.kr,35.49241492,129.084719,2021-10-07,5380000,경상남도 양산시
황전새마을작은도서관,경상남도,양산시,작은도서관,"일요일, 법정공휴일",14:00,18:00,10:00,12:00,00:00,00:00,45,10568,0,0,5,7,경상남도 양산시 물금읍 오봉로 15,,055-385-3149,148,148,http://lib.yangsan.go.kr,35.32637023,128.9987848,2021-10-07,5380000,경상남도 양산시
양산종합사회복지관 행복한작은도서관,경상남도,양산시,작은도서관,"일요일, 법정공휴일",09:00,22:00,09:00,18:00,00:00,00:00,8,9327,0,0,5,7,경상남도 양산시 물금읍 오봉10길 8,,055-365-9545,42,42,http://lib.yangsan.go.kr,35.33590029,129.0032742,2021-10-07,5380000,경상남도 양산시
백년가약작은도서관,경상남도,양산시,작은도서관,"토요일, 법정공휴일",14:00,18:00,00:00,00:00,00:00,00:00,84,13603,0,0,5,14,경상남도 양산시 물금읍 범어로 33,,055-910-5114,288,288,http://lib.yangsan.go.kr,35.33144139,129.0138454266,2021-10-07,5380000,경상남도 양산시
반도유보라새마을 작은도서관,경상남도,양산시,작은도서관,"토요일, 법정공휴일",14:00,18:00,00:00,00:00,00:00,00:00,42,10718,0,0,5,14,경상남도 양산시 물금읍 신주로 14,,055-363-3803,62,62,http://lib.yangsan.go.kr,35.33404302,129.0131594,2021-10-07,5380000,경상남도 양산시
글마루작은도서관,경상남도,양산시,작은도서관,"토요일, 법정공휴일",14:00,18:00,00:00,00:00,00:00,00:00,25,11350,0,0,3,14,경상남도 양산시 물금읍 신주로 35-1,,055-910-8022,49,49,http://lib.yangsan.go.kr,35.33429612,129.0183676,2021-10-07,5380000,경상남도 양산시
나주시립도서관,전라남도,나주시,공공도서관,"매월 첫째, 셋째 월요일, 법정공휴일",08:00,23:00,08:00,23:00,08:00,23:00,263,71431,20,8345,5,10,전라남도 나주시 영산포로 185-6,나주시청,061-339-4581,2188,1215,www.najulib.go.kr,34.998874,126.709512,2017-04-03,4830000,전라남도 나주시
빛가람시립도서관,전라남도,나주시,공공도서관,"매월 첫째, 셋째 월요일, 법정공휴일",08:00,23:00,08:00,23:00,08:00,23:00,267,30459,22,0,5,10,전라남도 나주시 빛가람로 717,나주시청,061-339-2551,8999.1,1452.84,www.najulib.go.kr,35.021978,126.790402,2017-04-03,4830000,전라남도 나주시
푸른마을작은도서관,경기도,고양시,작은도서관,일+첫째 주 월+첫째 주 토+셋째 주 토+셋째 주 월+다섯째 주 토+법정공휴일,10:00,18:00,10:00,14:00,00:00,00:00,0,21889,9,25,5,14,"경기도 고양시 덕양구 푸른마을로 55(고양동, 푸른마을6단지아파트)",경기도 고양시 푸른마을6단지 입주자대표회의,031-962-6996,142,142,https://band.us/band/61248570?,37.712299,126.905321,2022-03-31,3940000,경기도 고양시
풍동도서관,경기도,고양시,공공도서관,첫 번째 월+세 번째 월+법정공휴일(일요일 제외),09:00,22:00,09:00,18:00,00:00,00:00,0,91240,97,1929,7,14,경기도 고양시 일산동구 숲속마을로 108(풍동),경기도 고양시청,031-8075-9148,51109.3,1574.13,https://www.goyanglib.or.kr/ML/index.do,37.67072982,126.7971233,2022-03-31,3940000,경기도 고양시
한뫼도서관,경기도,고양시,공공도서관,두 번째 월+네 번째 월+법정공휴일(일요일 제외),07:00,23:00,07:00,23:00,00:00,00:00,134,136620,137,1879,7,14,경기도 고양시 일산서구 탄중로 284(일산동),경기도 고양시청,031-8075-9115,26167,4159.54,https://www.goyanglib.or.kr/MK/index.do,37.693557,126.776259,2022-03-31,3940000,경기도 고양시
햇빛21작은도서관,경기도,고양시,작은도서관,일+첫째 주 월+첫째 주 토+셋째 주 토+다섯째 주 토+법정공휴일,10:00,18:00,10:00,18:00,00:00,00:00,0,11888,8,150,5,14,경기도 고양시 덕양구 화신로 168(행신동),경기도 고양시 햇빛마을21단지 입주자대표회의,031-938-9400,96.5,96.5,https://cafe.daum.net/hb21library,37.627322,126.841414,2022-03-31,3940000,경기도 고양시
햇빛마을작은도서관,경기도,고양시,작은도서관,일+첫째 주 토+둘째 주 토+셋째 주 토+다섯째 주 토+법정공휴일,10:00,18:00,10:00,18:00,00:00,00:00,0,20246,0,33,5,14,"경기도 고양시 덕양구 충장로152번길 39(행신동, 햇빛마을20단지아파트)",경기도 고양시 햇빛마을20단지 입주자대표회의,031-972-9955,75,75,https://cafe.naver.com/hblibrary,37.624831,126.838474,2022-03-31,3940000,경기도 고양시
행신도서관,경기도,고양시,공공도서관,첫 번째 월+세 번째 월+법정공휴일(일요일 제외),07:00,23:00,07:00,23:00,00:00,00:00,204,147548,150,1929,7,14,경기도 고양시 덕양구 행당로33번길 25-6(행신동),경기도 고양시청,031-8075-9240,3753,2803,https://www.goyanglib.or.kr/MB/index.do,37.620759,126.828338,2022-03-31,3940000,경기도 고양시
행신어린이도서관,경기도,고양시,어린이도서관,두 번째 월+네 번째 월+법정공휴일(일요일 제외),09:00,18:00,09:00,18:00,00:00,00:00,0,105390,45,949,7,14,경기도 고양시 덕양구 소원로181번길 42(행신동),경기도 고양시청,031-8075-9278,1050.5,1687.72,https://www.goyanglib.or.kr/MH/index.do,37.614791,126.843466,2022-03-31,3940000,경기도 고양시
호수공원작은도서관,경기도,고양시,작은도서관,월+둘째 주 화+법정공휴일+일(11월~2월),10:00,19:00,10:00,18:00,10:00,18:00,0,7693,9,0,5,14,경기도 고양시 일산동구 호수로 595(장항동),책과도서관,031-901-2375,52,52,https://facebook.com/goyanghosoolib,37.653846,126.768781,2022-03-31,3940000,경기도 고양시
화전작은도서관,경기도,고양시,작은도서관,일+첫째 주 월+첫째 주 토+셋째 주 토+다섯째 주 토+법정공휴일,10:00,18:00,10:00,14:00,00:00,00:00,0,20152,8,417,5,14,경기도 고양시 덕양구 화랑로 1-1(화전동),경기도 고양시 화전동 주민자치위원회,02-3159-2266,100,100,https://blog.naver.com/hwajeonbook,37.599469,126.872773,2022-03-31,3940000,경기도 고양시
화정도서관,경기도,고양시,공공도서관,두 번째 월+네 번째 월+법정공휴일(일요일 제외),09:00,22:00,09:00,22:00,00:00,00:00,0,157678,220,5152,7,14,경기도 고양시 덕양구 은빛로77번길 8(화정동),경기도 고양시청,031-8075-9215,4149.3,4580.1,https://www.goyanglib.or.kr/ME/index.do,37.637836,126.837104,2022-03-31,3940000,경기도 고양시
관악중앙도서관,서울특별시,관악구,공공도서관,매주 화요일/국가지정공휴일,07:00,23:00,09:00,22:00,00:00,00:00,510,198650,64,26348,5,14,서울특별시 관악구 신림로3길 35(신림동),서울특별시 관악구청,02-828-5700,7349,14279,http://lib.gwanak.go.kr/,37.46759765,126.9448709,2021-10-15,3200000,서울특별시 관악구
글빛정보도서관,서울특별시,관악구,공공도서관,매주 수요일/국가지정공휴일,09:00,23:00,09:00,22:00,00:00,00:00,136,66137,56,2341,5,14,서울특별시 관악구 관악로 30길 23,서울특별시 관악구청,02-878-7460,351,693,http://lib.gwanak.go.kr/,37.486252,126.959668,2021-10-15,3200000,서울특별시 관악구
성현동작은도서관,서울특별시,관악구,공공도서관,매주 화요일/국가지정공휴일,09:00,19:00,09:00,17:00,00:00,00:00,60,52273,44,2098,5,14,서울특별시 관악구 관악로 37길 56,서울특별시 관악구청,02-877-7182,,1974,http://lib.gwanak.go.kr/,37.48731296,126.9561835,2021-10-15,3200000,서울특별시 관악구
은천동작은도서관,서울특별시,관악구,공공도서관,매주 화요일/국가지정공휴일,09:00,20:00,09:00,17:00,00:00,00:00,89,46522,45,1516,5,14,서울특별시 관악구 봉천로 33나길 30,서울특별시 관악구청,02-877-1162,1075,2974,http://lib.gwanak.go.kr/,37.48530456,126.942434,2021-10-15,3200000,서울특별시 관악구
조원작은도서관,서울특별시,관악구,공공도서관,매주 수요일/법정공휴일,09:00,20:00,09:00,17:00,00:00,00:00,210,62207,62,4748,5,14,서울특별시 관악구 조원로 12길 25,서울특별시 관악구청,02-851-5571,801,2668,http://lib.gwanak.go.kr/,37.48256328,126.907773,2021-10-15,3200000,서울특별시 관악구
숲속작은도서관,서울특별시,관악구,작은도서관,매주 화요일/국가지정공휴일,10:00,18:00,00:00,00:00,00:00,00:00,20,3070,0,0,5,14,서울특별시 관악구 관악산 나들길 114,서울특별시 관악구청,070-4118-6154,,,http://lib.gwanak.go.kr/,37.458841,126.9466795,2021-10-15,3200000,서울특별시 관악구
책이랑놀이랑,서울특별시,관악구,작은도서관,매주 화요일/국가지정공휴일,09:00,18:00,09:00,17:00,00:00,00:00,35,13253,13,433,8,14,서울특별시 관악구 행운1길 12 2층,서울특별시 관악구청,02-878-0955,380,902,http://lib.gwanak.go.kr/,37.479992,126.958588,2021-10-15,3200000,서울특별시 관악구
책쉼터,서울특별시,관악구,작은도서관,매주 일요일/국가지정공휴일,10:00,18:00,00:00,00:00,00:00,00:00,20,3723,0,0,2,7,서울특별시 관악구 낙성대로3길 37,서울특별시 관악구청,00-000-0000,10,6985,http://lib.gwanak.go.kr/,37.47306731,126.9603153,2021-10-15,3200000,서울특별시 관악구
낙성대공원도서관,서울특별시,관악구,작은도서관,매주 화요일/국가지정공휴일,09:00,18:00,09:00,17:00,00:00,00:00,39,7634,16,106,5,14,서울특별시 관악구 낙성대로 77,서울특별시 관악구청,02-872-5575,155,114,http://lib.gwanak.go.kr/,37.47197208,126.959371,2021-10-15,3200000,서울특별시 관악구
하난곡작은도서관,서울특별시,관악구,작은도서관,매주 화요일/국가지정공휴일,09:00,18:00,09:00,17:00,00:00,00:00,38,15065,17,668,5,14,서울특별시 관악구 난우10가길 20-7,서울특별시 관악구청,02-868-8994,198,358,http://lib.gwanak.go.kr/,37.47683046,126.919945,2021-10-15,3200000,서울특별시 관악구
용꿈꾸는 작은도서관,서울특별시,관악구,작은도서관,매주 일요일/국가지정공휴일,09:00,22:00,09:00,17:00,00:00,00:00,75,20594,26,419,5,14,서울특별시 관악구 관악로 145,서울특별시 관악구청,02-889-8823,132,230,http://lib.gwanak.go.kr/,37.47821067,126.9515012,2021-10-15,3200000,서울특별시 관악구
무주반딧불작은도서관,전라북도,무주군,작은도서관,일,10:00,19:00,10:00,15:00,00:00,00:00,40,12616,3,20,5,14,전라북도 무주군 설천면 하평지길 8-8,주민자치(반딧불운영위원회),070-7743-8006,133.68,133.68,https://library.muju.go.kr/main/contents.do?idx=1453,36.01043583,127.7872089,2022-06-19,4740000,전라북도 무주군
샘누리작은도서관,전라북도,무주군,작은도서관,토+일,10:00,18:00,00:00,00:00,00:00,00:00,35,10314,0,0,5,14,전라북도 무주군 무주읍 신교로3길 10,주민자치(반딧불아파트자치회),063-323-2231,130,130,https://library.muju.go.kr/main/contents.do?idx=1455,36.00932067,127.6667427,2022-06-19,4740000,전라북도 무주군
안성작은도서관,전라북도,무주군,작은도서관,토,10:00,17:00,00:00,00:00,10:00,17:00,35,12623,2,5,5,14,전라북도 무주군 안성면 안성로 288-15,사회단체(안성교회운영위원회),063-323-0106,83.08,83.08,https://library.muju.go.kr/main/contents.do?idx=1452,35.8667993,127.6552978,2022-06-19,4740000,전라북도 무주군
청송군립진보공공도서관,경상북도,청송군,공공도서관,"매주월요일, 법정공휴일",09:00,22:00,09:00,22:00,00:00,00:00,135,33863,24,0,3,14,경상북도 청송군 진보면 진보로 183-15,경상북도 청송군 종합시설관리사업소,054-870-6591,2567,1604.53,http://jinbolib.cs.go.kr,36.5297741,129.0510395,2022-06-15,5160000,경상북도 청송군
일산도서관,경기도,고양시,공공도서관,첫 번째 월+세 번째 월+법정공휴일(일요일 제외),09:00,22:00,09:00,18:00,00:00,00:00,0,36133,124,433,7,14,경기도 고양시 일산서구 고양대로 586-65(일산동),경기도 고양시청,031-8075-9367,1272,2676.44,https://www.goyanglib.or.kr/MU/index.do,37.68511428,126.764226,2022-03-31,3940000,경기도 고양시
주엽어린이도서관,경기도,고양시,어린이도서관,두 번째 월+네 번째 월+법정공휴일(일요일 제외),09:00,18:00,09:00,18:00,00:00,00:00,0,126896,43,1311,7,14,경기도 고양시 일산서구 주엽로 104(주엽동),경기도 고양시청,031-8075-9168,1500,2049.78,https://www.goyanglib.or.kr/MG/index.do,37.668464,126.756504,2022-03-31,3940000,경기도 고양시
탄현작은도서관,경기도,고양시,작은도서관,법정공휴일,09:00,18:00,09:00,17:00,00:00,00:00,0,21396,9,166,5,14,"경기도 고양시 일산서구 일현로 140(탄현동, 큰마을대림,현대아파트)",경기도 고양시 탄현큰마을 입주자대표회의,031-915-8875,168,168,https://www.instagram.com/tanhyun_slibrary/,37.70014661,126.7655482,2022-03-31,3940000,경기도 고양시
개암작은도서관,전라북도,부안군,작은도서관,월+일+법정공휴일,09:00,18:00,09:00,18:00,00:00,00:00,38,8234,24,0,5,15,전라북도 부안군 상서면 상서길 8,전라북도 부안군청,063-581-3957,552,134,https://lib.buan.go.kr,35.686361,126.6777049,2022-09-15,4790000,전라북도 부안군
갈대숲작은도서관,전라북도,부안군,작은도서관,월+일+법정공휴일,09:00,18:00,09:00,18:00,00:00,00:00,28,3460,0,0,5,15,전라북도 부안군 줄포면 서빈1길 10-13,전라북도 부안군청,063-581-2336,973,171,https://lib.buan.go.kr,35.5867790579,126.6751130436,2022-09-15,4790000,전라북도 부안군
꽃내음스마트도서관,전라북도,부안군,작은도서관,연중무휴,08:00,22:00,08:00,22:00,08:00,22:00,6,500,0,0,2,14,전라북도 부안군 변산면 격포항길 24-11,전라북도 부안군청,063-580-3947,,,https://lib.buan.go.kr,35.6233084066,126.4705280650,2022-09-15,4790000,전라북도 부안군
경상북도교육청구미도서관,경상북도,구미시,공공도서관,"둘째, 네째 월요일 및 관공서의 공휴일에 관한 규정에서 정한 공휴일(일요일은 개관화되 일요일과 다른 공휴일이 겹치는 경유 휴관)",09:00,20:00,09:00,17:00,00:00,00:00,590,261372,205,7091,5,14,경상북도 구미시 산책길 41 (원평동),경상북도교육청구미도서관,054-450-7000,6470,4722,http://www.gbelib.kr/,36.12417372,128.3313513,2022-09-13,8750686,경상북도교육청 경상북도교육청구미도서관
운중도서관,경기도,성남시,공공도서관,첫째 주 월+셋째 주 월+1월1일+설 연휴+추석 연휴,07:00,22:00,07:00,22:00,07:00,22:00,143,72178,41,470,6,14,경기도 성남시 분당구 판교원로81번길 9(운중동),경기도 성남시,031-729-4370,28137,1930,https://www.snlib.go.kr/uj,37.39004045,127.0751082,2022-08-31,3780000,경기도 성남시
수정도서관,경기도,성남시,공공도서관,둘째 주 월+넷째 주 월+설 연휴+추석 연휴,07:00,23:00,07:00,23:00,07:00,23:00,1115,304946,94,15743,6,14,경기도 성남시 수정구 수정로332번길 32,성남도시개발공사,031-743-9600,6188,7923,https://www.snlib.go.kr/sj,37.452231,127.1528496,2022-08-31,3780000,경기도 성남시
중원도서관,경기도,성남시,공공도서관,첫째 주 금+셋째 주 금+설 연휴+추석 연휴,07:00,23:00,07:00,23:00,07:00,23:00,1566,316858,101,15354,6,14,경기도 성남시 중원구 원터로 17번길 46(성남동),성남도시개발공사,031-752-3913,8264,13164.3,https://www.snlib.go.kr/jw,37.43022796,127.1401641,2022-08-31,3780000,경기도 성남시
논골도서관,경기도,성남시,공공도서관,월+법정공휴일,09:00,20:00,09:00,18:00,00:00,00:00,76,17456,16,0,6,14,경기도 성남시 수정구 논골로 23번길 2,경기도 성남시,031-729-4440,189.8,285.9,https://www.snlib.go.kr/ng,37.45619554,127.1599736,2022-08-31,3780000,경기도 성남시
판교도서관,경기도,성남시,공공도서관,둘째 주 금+넷째 주 금+1월1일+설 연휴+추석 연휴,07:00,23:00,07:00,23:00,07:00,23:00,962,217357,111,5797,6,14,경기도 성남시 분당구 운중로225번길 37(판교동),경기도 성남시,031-729-4900,946887.3,4505.84,https://www.snlib.go.kr/pg,37.39189991,127.0908701,2022-08-31,3780000,경기도 성남시
판교어린이도서관,경기도,성남시,공공도서관,둘째 주 월+넷재 주 월+1월1일+설 연휴+추석 연휴,07:00,23:00,07:00,23:00,07:00,23:00,406,119006,35,2668,6,14,경기도 성남시 분당구 판교역로 75(백현동),경기도 성남시,031-729-8880,8912,6273,https://www.snlib.go.kr/cpg,37.38752486,127.1076674,2022-08-31,3780000,경기도 성남시
중원어린이도서관,경기도,성남시,공공도서관,월+법정공휴일,09:00,20:00,09:00,18:00,00:00,00:00,708,109962,27,4670,6,14,경기도 성남시 중원구 산성대로 408,경기도 성남시,032-729-4352,3602,4255.47,https://www.snlib.go.kr/cjw,37.4480981,127.1587991,2022-08-31,3780000,경기도 성남시
해오름도서관,경기도,성남시,공공도서관,첫째 주 월+셋째 주 월+설 연휴+추석 연휴,07:00,23:00,07:00,23:00,07:00,23:00,717,66117,72,1679,6,14,경기도 성남시 중원구 희망로 403,경기도 성남시,032-729-8770,1734.9,4255.47,https://www.snlib.go.kr/hor,37.44160046,127.1594254,2022-08-31,3780000,경기도 성남시
분당도서관,경기도,성남시,공공도서관,둘째 주 월+넷째 주 월+설 연휴+추석 연휴,07:00,23:00,07:00,23:00,07:00,23:00,1382,320698,79,10618,6,14,경기도 성남시 분당구 불정로 110,경기도 성남시,031-729-4800,4052.5,8525.2,https://www.snlib.go.kr/bd,37.35810335,127.116568,2022-08-31,3780000,경기도 성남시
구미도서관,경기도,성남시,공공도서관,첫째 주 금+셋째 주 금+설 연휴+추석 연휴,07:00,23:00,07:00,23:00,07:00,23:00,1421,214719,111,6438,6,14,경기도 성남시 분당구 미금일로 105(구미동),경기도 성남시,031-729-4700,5282,6824,https://www.snlib.go.kr/gm,37.34552982,127.1076887,2022-08-31,3780000,경기도 성남시
금산작은도서관,충청남도,금산군,작은도서관,"국가지정공휴일, 매주 일요일",10:00,22:00,10:00,18:00,00:00,00:00,20,8218,2,0,10,14,충청남도 금산군 금산읍 방아동 4길 17,충청남도 금산군청,041-754-1318,116,116,http://library.geumsan.go.kr/,36.09789249,127.4909671,2022-05-31,4550000,충청남도 금산군
제원작은도서관,충청남도,금산군,작은도서관,"국가지정공휴일, 매주 토요일, 일요일",09:00,18:00,00:00,00:00,00:00,00:00,20,6364,2,0,10,14,충청남도 금산군 제원면 제원로 21,충청남도 금산군청,070-4244-3577,93,93,http://library.geumsan.go.kr/,36.11310124,127.5467774,2022-05-31,4550000,충청남도 금산군
군북작은도서관,충청남도,금산군,작은도서관,"국가지정공휴일, 매주 토요일, 일요일",09:00,18:00,00:00,00:00,00:00,00:00,20,7172,2,0,10,14,충청남도 금산군 군북면 군북로 701,충청남도 금산군청,041-754-2831,160,160,http://library.geumsan.go.kr/,36.166411,127.5260219,2022-05-31,4550000,충청남도 금산군
남일작은도서관,충청남도,금산군,작은도서관,"국가지정공휴일, 매주 토요일, 일요일",09:00,18:00,00:00,00:00,00:00,00:00,20,5875,2,0,10,14,충청남도 금산군 남일면 상초현길 10,충청남도 금산군청,041-753-7919,147,147,http://library.geumsan.go.kr/,36.0448224,127.5042748,2022-05-31,4550000,충청남도 금산군
무주형설지공군립도서관,전라북도,무주군,공공도서관,월+공휴일,09:00,22:00,09:00,17:00,09:00,17:00,158,43848,16,162,5,14,전라북도 무주군 무주읍 한풍루로 326-17,전라북도 무주군청,063-320-5622,419.8,419.8,https://library.muju.go.kr/main/main.do,36.00236061,127.6625944,2022-06-19,4740000,전라북도 무주군
무주만나작은도서관,전라북도,무주군,작은도서관,토+일,10:00,18:00,00:00,00:00,00:00,00:00,40,16567,20,56,5,21,전라북도 무주군 안성면 진성로 2393,주민자치(진원새마을회),070-8802-6000,115,115,https://library.muju.go.kr/main/contents.do?idx=1454,35.86564398,127.6282585,2022-06-19,4740000,전라북도 무주군
부민작은도서관,부산광역시,서구,작은도서관,"매주토요일, 일요일, 국가지정공휴일",14:00,18:00,00:00,00:00,00:00,00:00,30,10624,7,0,5,14,부산광역시 서구 해돋이로 313,부산시구덕시립도서관,051-255-1606,,40.95,,35.104366,129.016588,2021-10-15,3260000,부산광역시 서구
부산기독교 종합사회복지관 강유두작은도서관,부산광역시,서구,작은도서관,"매주토요일, 일요일, 국가지정공휴일",09:00,17:00,00:00,00:00,00:00,00:00,40,6322,0,0,5,7,"부산광역시 서구 까치고개로229번길 40, (토성동2가)",사회복지법인 감리회 태화복지재단,051-257-9404,,146.64,,35.1015803,129.021149,2021-10-15,3260000,부산광역시 서구
샤롯데 작은도서관,부산광역시,서구,작은도서관,"매주월요일, 국가지정공휴일",14:00,18:00,10:00,18:00,00:00,00:00,16,3423,0,0,2,7,"부산광역시 서구 대티로 161, (서대신동3가, 대신롯데캐슬)",대신롯데캐슬아파트입주자대표회의,051-255-9008,,56.44,,35.11666873,129.010293,2021-10-15,3260000,부산광역시 서구
서구문화원작은도서관,부산광역시,서구,작은도서관,"매주월요일, 일요일, 국가지정공휴일",09:00,18:00,10:00,17:00,00:00,00:00,31,9457,0,0,2,7,"부산광역시 서구 까치고개로197번길 46, (아미동2가)",부산서구문화원,051-241-6001,,187.76,,35.101987,129.0175956,2021-10-15,3260000,부산광역시 서구
송도바다 작은도서관,부산광역시,서구,작은도서관,"매주일요일, 국가지정공휴일",09:00,18:00,09:00,18:00,00:00,00:00,34,6458,0,0,5,14,부산광역시 서구 충무대로 83(암남동주민센터),암남동주민센터,051-240-6676,,168,,35.079883,129.020955,2021-10-15,3260000,부산광역시 서구
송도제일교회문고,부산광역시,서구,작은도서관,"매주월요일, 화요일, 수요일, 목요일, 금요일, 토요일",00:00,00:00,00:00,00:00,09:00,17:00,45,5600,0,0,2,7,부산광역시 서구 성산길 46,송도제일교회,051-248-6071,,150,,35.08132898,129.0128728,2021-10-15,3260000,부산광역시 서구
어울림 작은도서관,부산광역시,서구,작은도서관,"매주일요일, 국가지정공휴일",09:00,18:00,09:00,18:00,00:00,00:00,30,4068,0,0,5,14,부산광역시 서구 해돋이로 59,남부민2동행정복지센터,051-240-6624,,98.97,,35.084636,129.019611,2021-10-15,3260000,부산광역시 서구
짬짬이 작은도서관,부산광역시,서구,작은도서관,"매주일요일, 국가지정공휴일",09:00,18:00,09:30,13:30,00:00,00:00,20,3429,0,0,5,14,부산광역시 서구 구덕로295번길 4(서대신골목시장 고객쉼터),서대신1동행정복지센터,051-240-6465,,64.8,,35.110417,129.017322,2021-10-15,3260000,부산광역시 서구
초장동꿈터작은도서관,부산광역시,서구,작은도서관,"매주일요일, 국가지정공휴일",09:00,18:00,10:00,17:00,00:00,00:00,24,5177,0,43,5,14,부산광역시 서구 초장로27번길 32,초장동주민센터,051-240-6565,,198,,35.095979,129.020279,2021-10-15,3260000,부산광역시 서구
한새마을 작은도서관,부산광역시,서구,작은도서관,"매주일요일, 국가지정공휴일",09:00,18:00,09:00,18:00,00:00,00:00,52,4562,0,0,5,14,"부산광역시 서구 대신로 27, (서대신동3가)",서대신3동주민센터,051-240-6482,,106.04,,35.113473,129.011941,2021-10-15,3260000,부산광역시 서구
향기나는 작은도서관,부산광역시,서구,작은도서관,"매주일요일, 국가지정공휴일",09:00,18:00,10:00,17:00,00:00,00:00,18,4479,0,0,5,14,부산광역시 서구 구덕로280번길 32,동대신1동주민센터,051-240-6403,,34.5,,35.109636,129.020208,2021-10-15,3260000,부산광역시 서구
꽃마을 작은도서관,부산광역시,서구,작은도서관,"매주일요일, 국가지정공휴일",09:00,18:00,10:00,17:00,00:00,00:00,30,4813,0,0,5,14,"부산광역시 서구 꽃마을로163번길 7, (서대신동3가)",서대신4동주민센터,051-902-7715,,118,,35.127361,129.006835,2021-10-15,3260000,부산광역시 서구
남일이네 작은도서관,부산광역시,서구,작은도서관,"매주일요일, 국가지정공휴일",09:00,18:00,09:00,18:00,00:00,00:00,32,5532,0,0,5,14,부산광역시 서구 천마로 176,남부민1동행정복지센터,051-240-6602,,69.32,,35.09132144,129.0228985,2021-10-15,3260000,부산광역시 서구
대신푸르지오 푸른도서관,부산광역시,서구,작은도서관,"매주화요일, 목요일, 금요일, 일요일",15:30,17:30,09:00,12:00,00:00,00:00,30,1170,0,0,2,7,부산광역시 서구 대영로38번길 11,대신푸르지오아파트입주자대표회의,051-257-8652,,149.13,,35.107398,129.016132,2021-10-15,3260000,부산광역시 서구
부산연탄은행 마르지 않는 샘,부산광역시,서구,작은도서관,"매주토요일, 일요일, 국가지정공휴일",09:00,18:00,00:00,00:00,00:00,00:00,14,4180,0,0,5,7,부산광역시 서구 구덕로157번길 33-1,부산연탄은행,051-246-2464,,57.67,,35.09870125,129.0180972,2021-10-15,3260000,부산광역시 서구
부산대학교병원 작은(쌈지) 도서관,부산광역시,서구,작은도서관,"매주토요일, 일요일, 국가지정공휴일",09:00,17:30,00:00,00:00,00:00,00:00,12,2500,0,0,2,7,부산광역시 서구 구덕로 179,부산대학교병원,051-240-7494,,55.2,,35.101053,129.019223,2021-10-15,3260000,부산광역시 서구
송린이음터도서관,경기도,화성시,공공도서관,"매월 두 번째 월요일, 일요일을 제외한 법정공휴일",09:00,22:00,09:00,18:00,09:00,18:00,180,36464,54,0,7,14,경기도 화성시 수노을2로 150,화성시문화재단,031-356-9680,3765,1141,www.hscitylib.or.kr,37.2773227869,126.8225294652,2021-10-01,5530000,경기도 화성시
목동이음터도서관,경기도,화성시,공공도서관,"매월 첫 번째 월요일, 일요일을 제외한 법정공휴일",09:00,22:00,09:00,18:00,09:00,18:00,168,47422,29,8191,7,14,경기도 화성시 동탄순환대로20길 6,화성시문화재단,031-378-6771,2770,1774,www.hscitylib.or.kr,37.1892961350,127.1238977616,2021-10-01,5530000,경기도 화성시
왕배푸른숲도서관,경기도,화성시,공공도서관,"매월 두 번째 월요일, 일요일을 제외한 법정공휴일",09:00,22:00,09:00,18:00,09:00,18:00,351,25520,46,0,7,14,경기도 화성시 동탄대로12길 102,화성시문화재단,031-372-4435,4092,2192,www.hscitylib.or.kr,37.1934151,127.1185306,2021-10-01,5530000,경기도 화성시
노을빛도서관,경기도,화성시,공공도서관,"매월 첫 번째 월요일, 일요일을 제외한 법정공휴일",09:30,22:00,09:30,18:00,09:30,18:00,140,9087,0,0,7,14,경기도 화성시 병점노을로 19,화성시문화재단,031-226-3301,13000,738,www.hscitylib.or.kr,37.2027104,126.8211974,2021-10-01,5530000,경기도 화성시
서연이음터도서관,경기도,화성시,공공도서관,"매월 첫 번째 월요일, 일요일을 제외한 법정공휴일",09:00,22:00,09:00,18:00,09:00,18:00,263,16394,0,0,7,14,경기도 화성시 동탄순환대로8길 57,화성시인재육성재단,031-378-1352,3250,12344,www.hscitylib.or.kr,37.1605899346,127.1096567878,2021-10-01,5530000,경기도 화성시
샘내작은도서관,경기도,화성시,작은도서관,"매주 일,월요일 및 법정공휴일",09:00,18:00,09:00,17:00,00:00,00:00,26,17055,8,461,7,14,경기도 화성시 매송면 매송고색로 375,화성시문화재단,031-292-7307,820,212,www.hscitylib.or.kr,37.2438982888,126.9465377685,2021-10-01,5530000,경기도 화성시
기아행복마루작은도서관,경기도,화성시,작은도서관,"매주 일,월요일 및 법정공휴일",09:00,18:00,09:00,00:00,00:00,00:00,30,14588,9,751,7,14,경기도 화성시 우정읍 기아자동차로 559,화성시문화재단,031-358-2597,652,162,www.hscitylib.or.kr,37.0647000837,126.7956060613,2021-10-01,5530000,경기도 화성시
비봉작은도서관,경기도,화성시,작은도서관,"매주 일,월요일 및 법정공휴일",09:00,18:00,09:00,17:00,00:00,00:00,31,9894,1,120,7,14,경기도 화성시 비봉면 비봉로71번길 1,화성시문화재단,031-355-4551,4232,122,www.hscitylib.or.kr,37.2358185897,126.8738925144,2021-10-01,5530000,경기도 화성시
양감작은도서관,경기도,화성시,작은도서관,"매주 토,일요일 및 법정공휴일",10:00,18:00,00:00,00:00,00:00,00:00,17,2923,8,0,7,14,경기도 화성시 양감면 초록로 7,화성시청,031-5189-3004,4275,75,www.hscitylib.or.kr,37.0816536493,126.9456437753,2021-10-01,5530000,경기도 화성시
마도작은도서관,경기도,화성시,작은도서관,"매주 토,일요일 및 법정공휴일",10:00,18:00,00:00,00:00,00:00,00:00,20,2341,8,0,7,14,경기도 화성시 마도면 마도북로 389,화성시청,031-5189-2338,6022,131,www.hscitylib.or.kr,37.2054859998,126.7696447718,2021-10-01,5530000,경기도 화성시
팔탄작은도서관,경기도,화성시,작은도서관,"매주 토,일요일 및 법정공휴일",10:00,18:00,00:00,00:00,00:00,00:00,25,3899,9,0,7,14,경기도 화성시 팔탄면 구장길 14,화성시청,031-5189-2339,4572,88,www.hscitylib.or.kr,37.1622338752,126.9049012670,2021-10-01,5530000,경기도 화성시
봉담커피앤북작은도서관,경기도,화성시,작은도서관,"매주 토,일요일 및 법정공휴일",10:00,18:00,00:00,00:00,00:00,00:00,25,4200,9,0,7,14,경기도 화성시 봉담읍 상리3길 38,화성시청,070-4040-9833,32235,93,www.hscitylib.or.kr,37.20914635,126.7657565,2021-10-01,5530000,경기도 화성시
고창군립도서관,전라북도,고창군,공공도서관,"매주 토요일, 1월 1일, 설·추석 연휴",09:00,22:00,00:00,00:00,09:00,18:00,158,67646,7,710,5,14,전라북도 고창군 고창읍 모양성로 11,전라북도 고창군청,063-560-2420,8777,1070,http://www.gochang.go.kr/library,35.43338075,126.7045089,2021-10-01,4780000,전라북도 고창군
고창군립성호도서관,전라북도,고창군,공공도서관,매주 일요일 및 법정공휴일,09:00,22:00,09:00,18:00,00:00,00:00,159,46935,8,143,5,14,전라북도 고창군 고창읍 모양성로 50,전라북도 고창군청,063-561-2421,778.26,778.26,http://www.gochang.go.kr/library,35.43744052,126.7012704,2021-10-01,4780000,전라북도 고창군
고수해마루작은도서관,전라북도,고창군,작은도서관,매주일요일,09:00,18:00,09:00,15:00,00:00,00:00,13,11772,0,0,5,14,전라북도 고창군 고수면 고수로 18-5,전라북도 고창군청,063-561-2726,271,271,http://www.gochang.go.kr/library,35.4081148,126.6797719,2021-10-01,4780000,전라북도 고창군
아산선운산작은도서관,전라북도,고창군,작은도서관,매주일요일,09:00,18:00,09:00,15:00,00:00,00:00,20,10115,0,0,5,14,전라북도 고창군 아산면 녹두로 786,전라북도 고창군청,063-561-1521,213,213,http://www.gochang.go.kr/library,35.4397818,126.6347511,2021-10-01,4780000,전라북도 고창군
대산큰별작은도서관,전라북도,고창군,작은도서관,매주일요일,09:00,18:00,09:00,15:00,00:00,00:00,8,6137,0,0,5,14,전라북도 고창군 대산면 대산시장길 19-2,전라북도 고창군청,063-564-1521,79.3,79.3,http://www.gochang.go.kr/library,35.340546,126.6003634,2021-10-01,4780000,전라북도 고창군
푸른작은도서관,서울특별시,은평구,작은도서관,"토,일요일 법정공휴일",13:00,17:00,00:00,00:00,00:00,00:00,38,5976,2,450,2,7,연서로 455 537동 1층(3지구),,02-359-1801,,,,,,2021-04-01,3110000,서울특별시 은평구
배꽃뜰 작은도서관,전라북도,완주군 이서면,작은도서관,일+월+공휴일,09:00,18:00,09:00,18:00,00:00,00:00,30,13616,0,0,5,20,전라북도 완주군 이서면 이서로 55 (이서행정복지센터3층),비채나누 (민간위탁),063-222-1919,145,,http://lib.wanju.go.kr,,,2022-06-14,4720000,전라북도 완주군
기찻길 작은도서관,전라북도,완주군 상관면,작은도서관,토+일+공휴일,09:00,18:00,00:00,00:00,00:00,00:00,20,13056,0,0,5,20,전라북도 완주군 상관면 신리로 109 (상관행정복지센터3층),손애손 (민간위탁),063-231-3200,192,,http://lib.wanju.go.kr,,,2022-06-14,4720000,전라북도 완주군
철쭉 작은도서관,전라북도,완주군 소양면,작은도서관,일+월+공휴일,09:00,18:00,09:00,18:00,00:00,00:00,15,8603,0,0,5,20,전라북도 완주군 소양면 소양로231 (소양교육문화지원센터2층),소꿈사 협동조합 (민간위탁),063-247-8866,155,,http://lib.wanju.go.kr,,,2022-06-14,4720000,전라북도 완주군
화산골 작은도서관,전라북도,완주군 화산면,작은도서관,토+일+공휴일,09:00,18:00,00:00,00:00,00:00,00:00,15,7201,0,0,5,20,전라북도 완주군 화산면 화산로 830-14 (화산행정복지센터2층),스케치북 (민간위탁),063-263-1199,138,,http://lib.wanju.go.kr,,,2022-06-14,4720000,전라북도 완주군
경천애인 작은도서관,전라북도,완주군 경천면,작은도서관,토+일+공휴일,09:00,18:00,00:00,00:00,00:00,00:00,30,5926,0,0,5,20,전라북도 완주군 경천면 대둔산로 256 (경천문화복지센터1층),경천너는꽃 (민간위탁),063-262-2987,99,,http://lib.wanju.go.kr,,,2022-06-14,4720000,전라북도 완주군
용꿈 작은도서관,전라북도,완주군 용진읍,작은도서관,토+일+공휴일,09:00,18:00,00:00,00:00,00:00,00:00,20,4613,0,0,5,20,전라북도 완주군 용진읍 완주로 174 (용진행정복지센터3층),용꿈 (민간위탁),063-241-2756,99,,http://lib.wanju.go.kr,,,2022-06-14,4720000,전라북도 완주군
순창군립도서관,전라북도,순창군,공공도서관,금+법정공휴일,09:00,23:00,09:00,23:00,09:00,23:00,65,34773,30,6028,4,14,전라북도 순창군 순창읍 순창5길 18,전라북도 순창군,063-650-5678,2162,1247,lib.sunchang.go.kr,35.37373471,127.1407399,2022-06-15,4770000,전라북도 순창군
남원시립도서관,전라북도,남원시,공공도서관,월+법정공휴일,09:00,22:00,09:00,18:00,00:00,00:00,184,63990,10,0,5,15,전라북도 남원시 광한북로 54 (남원시립도서관),남원시청,063-620-8976,965,555,https://www.namwon.go.kr/index.do?menuCd=DOM_000000203001006023,35.40771672,127.380171,2022-06-15,4700000,전라북도 남원시
남원어린이청소년도서관,전라북도,남원시,어린이도서관,월+법정공휴일,09:00,22:00,09:00,18:00,00:00,00:00,166,28055,1,0,5,15,전라북도 남원시 역재3길 12( 남원어린이청소년도서관),남원시청,063-620-5290,864,1454,https://www.namwon.go.kr/index.do?menuCd=DOM_000000203001006024,35.42030219,127.3998533,2022-06-15,4700000,전라북도 남원시
품안작은도서관,전라북도,남원시,작은도서관,토+일+월+법정공휴일,13:00,17:00,00:00,00:00,00:00,00:00,16,7914,0,0,5,15,전라북도 남원시 산내면 대정길21(산내면주민센터 옆),품안작은도서관,063-620-4718,,155,https://www.namwon.go.kr/index.do?menuCd=DOM_000000203001006016,35.41910429,127.6228637,2022-06-15,4700000,전라북도 남원시
독우물작은도서관,전라북도,남원시,작은도서관,월+법정공휴일,09:30,17:30,09:30,17:30,00:00,00:00,19,7730,0,0,5,15,전라북도 남원시 금지면 독우물길33(석정새마을회관 2층),독우물작은도서관,063-626-6669,,66,https://www.namwon.go.kr/index.do?menuCd=DOM_000000203001006016,35.35929223,127.303025,2022-06-15,4700000,전라북도 남원시
혼불작은도서관,전라북도,남원시,작은도서관,토+일+법정공휴일,09:00,18:00,00:00,00:00,00:00,00:00,24,11291,0,0,5,15,전라북도 남원시 사매면 오신1길 9-2(사매면주민센터 옆),혼불작은도서관,063-634-9003,,132,https://www.namwon.go.kr/index.do?menuCd=DOM_000000203001006016,35.49802456,127.3603156,2022-06-15,4700000,전라북도 남원시
빨간사과작은도서관,전라북도,남원시,작은도서관,일+월+법정공휴일,10:00,20:00,00:00,00:00,00:00,00:00,35,9107,0,0,5,15,전라북도 남원시 쌍교동 관서당길 35(남원청소년문화의집),빨간사과작은도서관,063-626-3313,,166,https://www.namwon.go.kr/index.do?menuCd=DOM_000000203001006016,,,2022-06-15,4700000,전라북도 남원시
가야작은도서관,경상남도,합천군,작은도서관,토+일+공휴일,09:00,21:00,00:00,00:00,00:00,00:00,18,6100,0,0,6100,14,경상남도 합천군 가야면 황산3길 8-15,가야작은도서관,055-932-9989,,122.31,,35.76271077,128.1387963,2022-08-30,5480000,경상남도 합천군
금동작은도서관,전라북도,남원시,작은도서관,일+법정공휴일,10:00,18:00,10:00,18:00,00:00,00:00,25,6492,0,0,5,15,전라북도 남원시 금동 금하정1길 8-6(금동아파트 관리사무소 옆),금동작은도서관,070-8194-8956,,100,https://www.namwon.go.kr/index.do?menuCd=DOM_000000203001006016,,,2022-06-15,4700000,전라북도 남원시
휴먼시아작은도서관,전라북도,남원시,작은도서관,월+법정공휴일,10:00,18:00,10:00,18:00,00:00,00:00,37,10331,0,0,5,15,전라북도 남원시 금동 가방뜰길57(휴먼시아아파트 관리사무소 1층),휴먼시아작은도서관,063-633-1553,,136,https://www.namwon.go.kr/index.do?menuCd=DOM_000000203001006016,,,2022-06-15,4700000,전라북도 남원시
이그린작은도서관,전라북도,남원시,작은도서관,목+법정공휴일,10:00,18:00,10:00,18:00,00:00,00:00,30,7457,0,0,5,15,전라북도 남원시 월락동 황죽로11(이그린아파트 경로당 옆),이그린작은도서관,063-635-6104,,145,https://www.namwon.go.kr/index.do?menuCd=DOM_000000203001006016,,,2022-06-15,4700000,전라북도 남원시
송동작은도서관,전라북도,남원시,작은도서관,화+법정공휴일,10:00,18:00,10:00,18:00,00:00,00:00,23,6937,0,0,5,15,전라북도 남원시 송동면 송기길38(송동면 복지회관 1층),송동작은도서관,063-636-6497,,158,https://www.namwon.go.kr/index.do?menuCd=DOM_000000203001006016,35.35325178,127.3365907,2022-06-15,4700000,전라북도 남원시
새싹작은도서관,전라북도,남원시,작은도서관,토+일+법정공휴일,09:00,18:00,00:00,00:00,00:00,00:00,70,5306,2,0,5,15,전라북도 남원시 인월면 인월로64(지리산새마을금고 2층),새싹작은도서관,070-4246-2308,,132,https://www.namwon.go.kr/index.do?menuCd=DOM_000000203001006016,35.46085657,127.6021528,2022-06-15,4700000,전라북도 남원시
메카센트럴작은도서관,전라북도,남원시,작은도서관,월+법정공휴일,11:00,18:00,11:00,18:00,00:00,00:00,25,5417,0,0,5,15,전라북도 남원시 농원길 60(조산동)(메카센트럴작은도서관 주민복지시설 3층),메카센트럴작은도서관,063-635-6634,,132,https://www.namwon.go.kr/index.do?menuCd=DOM_000000203001006016,35.39501542,127.3657499,2022-06-15,4700000,전라북도 남원시
황죽작은도서관,전라북도,남원시,작은도서관,화+법정공휴일,10:00,18:00,10:00,18:00,00:00,00:00,12,6007,0,0,5,15,전라북도 남원시 고죽동 황죽천변길6(구 황죽마을회관),황죽작은도서관,063-626-6364,,168,https://www.namwon.go.kr/index.do?menuCd=DOM_000000203001006016,,,2022-06-15,4700000,전라북도 남원시
오들작은도서관,전라북도,남원시,작은도서관,토+일+법정공휴일,09:00,18:00,00:00,00:00,00:00,00:00,47,5226,0,0,5,15,전라북도 남원시 도통동 오들1길26(부영5차아파트 관리사무동 3층),오들작은도서관,070-4964-5393,,180,https://www.namwon.go.kr/index.do?menuCd=DOM_000000203001006016,,,2022-06-15,4700000,전라북도 남원시
목천느티나무작은도서관,충청남도,천안시,작은도서관,토+일요일+국가지정공휴일,08:30,16:30,00:00,00:00,00:00,00:00,40,5529,3,0,10,14,충청남도 천안시 동남구 목천읍 서리2길 31,충청남도 천안시청,041-522-8018,180,180,http://www.cheonan.go.kr/lib.do,36.78791317,127.2357247,2022-05-31,4490000,충청남도 천안시
효천시티프라디움작은도서관,광주광역시,남구,작은도서관,연중무휴,09:00,23:00,09:00,23:00,09:00,23:00,24,1700,0,0,0,0,광주광역시 남구 효천2로 1,효천시티프라디움아파트,062-675-0931,,123.165,,35.10024965,126.8720412,2022-05-13,3610000,광주광역시 남구
효천행복작은도서관,광주광역시,남구,작은도서관,연중무휴,09:00,18:00,09:00,17:00,09:00,17:00,20,1858,0,0,3,7,광주광역시 남구 행암길 9,효천LH천년나무7단지,062-674-0472,,125.4,,35.10231004,126.8951773,2022-05-13,3610000,광주광역시 남구
희망작은도서관,광주광역시,남구,작은도서관,토+공휴일,09:00,18:00,00:00,00:00,00:00,00:00,20,1781,0,0,3,14,광주광역시 남구 진다리로31번길 13,개인,062-653-2313,,66.41,,35.13797781,126.9050673,2022-05-13,3610000,광주광역시 남구
흰구름작은도서관,광주광역시,남구,작은도서관,토+공휴일,09:00,18:00,00:00,00:00,00:00,00:00,10,2500,0,0,0,0,광주광역시 남구 진다리로6번가길 13,흰구름어린이집,062-652-1319,,39,,35.13655019,126.9037505,2022-05-13,3610000,광주광역시 남구
힐스테이트백운작은도서관,광주광역시,남구,작은도서관,토+공휴일,09:00,18:00,00:00,00:00,00:00,00:00,22,2258,0,0,0,0,광주광역시 남구 회재로1293번길 7,백운힐스테이트1단지아파트,062-671-9981,,38.9183,,35.13665692,126.9006318,2022-05-13,3610000,광주광역시 남구
LH반딧불작은도서관,광주광역시,남구,작은도서관,토+공휴일,10:00,17:30,00:00,00:00,00:00,00:00,20,6500,0,0,0,0,광주광역시 남구 백운로 100,백운3휴먼시아아파트,062-673-1237,,40,,35.14238102,126.9068774,2022-05-13,3610000,광주광역시 남구
향파새마을작은도서관,경상남도,합천군,작은도서관,토+일+공휴일,09:00,17:00,00:00,00:00,00:00,00:00,14,5613,0,0,2,14,경상남도 합천군 합천읍 동서로 39,새마을문고합천군지부,055-930-4530,,51.9,,35.56792811,128.1567534,2022-08-30,5480000,경상남도 합천군
토끼와거북이 리더십도서관,경상남도,합천군,작은도서관,연중무휴,10:00,18:00,10:00,18:00,10:00,16:00,20,2000,0,0,2000,7,경상남도 합천군 합천읍 동서로 124-5,합천소망교회,055-933-4564,99.17,82.64,,35.5653929,128.1656815,2022-08-30,5480000,경상남도 합천군
관기교회문고,경상남도,합천군,작은도서관,일+공휴일,09:00,18:00,09:00,13:00,00:00,00:00,15,1800,10,50,3,14,경상남도 합천군 묘산면 관기길 13-18,관기교회,055-932-6161,437,72.6,,35.6479538,128.1279201,2022-08-30,5480000,경상남도 합천군
적중문고,경상남도,합천군,작은도서관,토+일+공휴일,10:00,21:00,00:00,00:00,00:00,00:00,20,2000,3,2,2000,14,경상남도 합천군 적중면 상부1길17,적중문고,070-7784-7177,357.02,82.64,,35.54759808,128.2768649,2022-08-30,5480000,경상남도 합천군
도토리와친구들어린이도서관,경상남도,합천군,작은도서관,월+일+공휴일,10:00,18:00,10:00,18:00,00:00,00:00,50,6000,2,50,5,14,경상남도 합천군 초계면 초계중앙로 106-10,도토리와친구들어린이도서관,055-931-7128,330.58,198.35,,35.558138,128.270268,2022-08-30,5480000,경상남도 합천군
샛별도서관,경상남도,합천군,작은도서관,월+일+공휴일,10:00,17:00,10:00,14:00,00:00,00:00,25,10000,4,3,3,7,경상남도 합천군 덕곡면 율지2길8,샛별도서관,055-933-0131,99.17,82.64,,35.61515414,128.358802,2022-08-30,5480000,경상남도 합천군
꿈꾸는 도서관,경상남도,합천군,작은도서관,월+일+공휴일,11:00,20:00,09:00,18:00,00:00,00:00,25,3500,0,3,0,0,경상남도 합천군 가회면 황매산로 34-11,꿈꾸는도서관,,82.64,66.12,,35.43440251,128.0341132,2022-08-30,5480000,경상남도 합천군
행복한 아이터,경상남도,합천군,작은도서관,일+공휴일,11:00,19:00,11:00,17:00,00:00,00:00,40,2860,0,200,2860,14,경상남도 합천군 가야면 매안대전길 28,합천여성농업인종합지원센터,070-8869-8232,264.46,148.76,,35.73181837,128.105972,2022-08-30,5480000,경상남도 합천군
삼가장터3.1광장도서관,경상남도,합천군,작은도서관,토+일+공휴일,09:00,18:00,00:00,00:00,00:00,00:00,26,3400,1,0,3400,14,경상남도 합천군 삼가면 양천강변길59,삼가장터3.1광장도서관,,232,41.04,,35.412918,128.121263,2022-08-30,5480000,경상남도 합천군
